[
  {
    "name": "Абаза",
    "lat": 52.6517296,
    "long": 90.0885929
  },
  {
    "name": "Абакан",
    "lat": 53.7223661,
    "long": 91.4437792
  },
  {
    "name": "Абдулино",
    "lat": 53.6778096,
    "long": 53.6473115
  },
  {
    "name": "Абинск",
    "lat": 44.8679931,
    "long": 38.1618437
  },
  {
    "name": "Агидель",
    "lat": 55.89976,
    "long": 53.9221149
  },
  {
    "name": "Агрыз",
    "lat": 56.5232645,
    "long": 52.994257
  },
  {
    "name": "Адыгейск",
    "lat": 44.8783715,
    "long": 39.190172
  },
  {
    "name": "Азнакаево",
    "lat": 54.8599054,
    "long": 53.0745505
  },
  {
    "name": "Азов",
    "lat": 47.1120631,
    "long": 39.4232597
  },
  {
    "name": "Ак-Довурак",
    "lat": 51.1785658,
    "long": 90.5984511
  },
  {
    "name": "Аксай",
    "lat": 47.2676075,
    "long": 39.8755485
  },
  {
    "name": "Алагир",
    "lat": 43.0416151,
    "long": 44.2198622
  },
  {
    "name": "Алапаевск",
    "lat": 57.8475542,
    "long": 61.6693934
  },
  {
    "name": "Алатырь",
    "lat": 54.8398179,
    "long": 46.5721423
  },
  {
    "name": "Алдан",
    "lat": 58.6094885,
    "long": 125.3816689
  },
  {
    "name": "Алейск",
    "lat": 52.4920914,
    "long": 82.7794145
  },
  {
    "name": "Александров",
    "lat": 56.3919652,
    "long": 38.711035
  },
  {
    "name": "Александровск",
    "lat": 59.1613773,
    "long": 57.5764851
  },
  {
    "name": "Александровск-Сахалинский",
    "lat": 50.8973664,
    "long": 142.1579322
  },
  {
    "name": "Алексеевка",
    "lat": 50.6299932,
    "long": 38.6881776
  },
  {
    "name": "Алексин",
    "lat": 54.5083788,
    "long": 37.047891
  },
  {
    "name": "Алзамай",
    "lat": 55.5550493,
    "long": 98.6644106
  },
  {
    "name": "Алушта",
    "lat": 44.6764419,
    "long": 34.4100387
  },
  {
    "name": "Альметьевск",
    "lat": 54.9013662,
    "long": 52.2970654
  },
  {
    "name": "Амурск",
    "lat": 50.2345017,
    "long": 136.8791135
  },
  {
    "name": "Анадырь",
    "lat": 64.7314347,
    "long": 177.5015752
  },
  {
    "name": "Анапа",
    "lat": 44.8950777,
    "long": 37.3163142
  },
  {
    "name": "Ангарск",
    "lat": 52.5448102,
    "long": 103.8885385
  },
  {
    "name": "Андреаполь",
    "lat": 56.6507072,
    "long": 32.2621196
  },
  {
    "name": "Анжеро-Судженск",
    "lat": 56.0787179,
    "long": 86.0202207
  },
  {
    "name": "Анива",
    "lat": 46.7132526,
    "long": 142.5265052
  },
  {
    "name": "Апатиты",
    "lat": 67.5678295,
    "long": 33.4067218
  },
  {
    "name": "Апрелевка",
    "lat": 55.5276336,
    "long": 37.0651105
  },
  {
    "name": "Апшеронск",
    "lat": 44.4585239,
    "long": 39.7300092
  },
  {
    "name": "Арамиль",
    "lat": 56.6945341,
    "long": 60.8343825
  },
  {
    "name": "Аргун",
    "lat": 43.2918071,
    "long": 45.8724383
  },
  {
    "name": "Ардатов",
    "lat": 54.8465693,
    "long": 46.2412736
  },
  {
    "name": "Ардон",
    "lat": 43.1756719,
    "long": 44.2955701
  },
  {
    "name": "Арзамас",
    "lat": 55.3947544,
    "long": 43.8407855
  },
  {
    "name": "Аркадак",
    "lat": 51.9387813,
    "long": 43.4997558
  },
  {
    "name": "Армавир",
    "lat": 45.0010338,
    "long": 41.132392
  },
  {
    "name": "Армянск",
    "lat": 46.1059247,
    "long": 33.6910325
  },
  {
    "name": "Арсеньев",
    "lat": 44.16208,
    "long": 133.269622
  },
  {
    "name": "Арск",
    "lat": 56.0913636,
    "long": 49.8770441
  },
  {
    "name": "Артем",
    "lat": 43.350053,
    "long": 132.1596594
  },
  {
    "name": "Артемовск",
    "lat": 54.3472901,
    "long": 93.4356543
  },
  {
    "name": "Артемовский",
    "lat": 57.3384162,
    "long": 61.8946599
  },
  {
    "name": "Архангельск",
    "lat": 64.5392985,
    "long": 40.5170083
  },
  {
    "name": "Асбест",
    "lat": 57.0052428,
    "long": 61.4581071
  },
  {
    "name": "Асино",
    "lat": 56.9908444,
    "long": 86.1765724
  },
  {
    "name": "Астрахань",
    "lat": 46.3655808,
    "long": 48.0559979
  },
  {
    "name": "Аткарск",
    "lat": 51.8736331,
    "long": 45.0003199
  },
  {
    "name": "Ахтубинск",
    "lat": 48.2753078,
    "long": 46.1906741
  },
  {
    "name": "Ачинск",
    "lat": 56.2538662,
    "long": 90.47949
  },
  {
    "name": "Аша",
    "lat": 54.9907105,
    "long": 57.2783704
  },
  {
    "name": "Бабаево",
    "lat": 59.389309,
    "long": 35.9378318
  },
  {
    "name": "Бабушкин",
    "lat": 51.7113066,
    "long": 105.8673633
  },
  {
    "name": "Бавлы",
    "lat": 54.4063588,
    "long": 53.2457946
  },
  {
    "name": "Багратионовск",
    "lat": 54.3866976,
    "long": 20.6418545
  },
  {
    "name": "Байкальск",
    "lat": 51.5231282,
    "long": 104.1485752
  },
  {
    "name": "Баймак",
    "lat": 52.5912632,
    "long": 58.3111995
  },
  {
    "name": "Бакал",
    "lat": 54.9406759,
    "long": 58.8051085
  },
  {
    "name": "Баксан",
    "lat": 43.6820621,
    "long": 43.5345627
  },
  {
    "name": "Балабаново",
    "lat": 55.1773652,
    "long": 36.6567255
  },
  {
    "name": "Балаково",
    "lat": 52.0222694,
    "long": 47.7828146
  },
  {
    "name": "Балахна",
    "lat": 56.4949932,
    "long": 43.5758953
  },
  {
    "name": "Балашиха",
    "lat": 55.7963352,
    "long": 37.9381413
  },
  {
    "name": "Балашов",
    "lat": 51.5389502,
    "long": 43.1839828
  },
  {
    "name": "Балей",
    "lat": 51.5822063,
    "long": 116.6380088
  },
  {
    "name": "Балтийск",
    "lat": 54.6514128,
    "long": 19.9141911
  },
  {
    "name": "Барабинск",
    "lat": 55.3515917,
    "long": 78.3465012
  },
  {
    "name": "Барнаул",
    "lat": 53.3481145,
    "long": 83.7798362
  },
  {
    "name": "Барыш",
    "lat": 53.6534563,
    "long": 47.1180805
  },
  {
    "name": "Батайск",
    "lat": 47.138321,
    "long": 39.7508382
  },
  {
    "name": "Бахчисарай",
    "lat": 44.751388,
    "long": 33.8750341
  },
  {
    "name": "Бежецк",
    "lat": 57.7861144,
    "long": 36.6903445
  },
  {
    "name": "Белая Калитва",
    "lat": 48.176948,
    "long": 40.8033169
  },
  {
    "name": "Белая Холуница",
    "lat": 58.8415212,
    "long": 50.8461002
  },
  {
    "name": "Белгород",
    "lat": 50.5977351,
    "long": 36.5858236
  },
  {
    "name": "Белебей",
    "lat": 54.1033832,
    "long": 54.1111878
  },
  {
    "name": "Белев",
    "lat": 53.8113348,
    "long": 36.1383153
  },
  {
    "name": "Белинский",
    "lat": 52.9641169,
    "long": 43.4185003
  },
  {
    "name": "Белово",
    "lat": 54.4221442,
    "long": 86.3036438
  },
  {
    "name": "Белогорск",
    "lat": 50.9212235,
    "long": 128.4738742
  },
  {
    "name": "Белозерск",
    "lat": 60.0307914,
    "long": 37.7891123
  },
  {
    "name": "Белокуриха",
    "lat": 51.9960534,
    "long": 84.9840343
  },
  {
    "name": "Беломорск",
    "lat": 64.5378468,
    "long": 34.7799717
  },
  {
    "name": "Белорецк",
    "lat": 53.9675927,
    "long": 58.4099562
  },
  {
    "name": "Белореченск",
    "lat": 44.7652733,
    "long": 39.8780457
  },
  {
    "name": "Белоусово",
    "lat": 55.0957679,
    "long": 36.6777239
  },
  {
    "name": "Белоярский",
    "lat": 63.712181,
    "long": 66.6772357
  },
  {
    "name": "Белый",
    "lat": 55.8337663,
    "long": 32.9388976
  },
  {
    "name": "Бердск",
    "lat": 54.7582375,
    "long": 83.1072212
  },
  {
    "name": "Березники",
    "lat": 59.4079898,
    "long": 56.8040725
  },
  {
    "name": "Березовский",
    "lat": 55.6692853,
    "long": 86.2744636
  },
  {
    "name": "Беслан",
    "lat": 43.1937634,
    "long": 44.5338746
  },
  {
    "name": "Бийск",
    "lat": 52.5393683,
    "long": 85.2138852
  },
  {
    "name": "Бикин",
    "lat": 46.8186244,
    "long": 134.2551046
  },
  {
    "name": "Билибино",
    "lat": 68.0585533,
    "long": 166.4388451
  },
  {
    "name": "Биробиджан",
    "lat": 48.7945975,
    "long": 132.9217594
  },
  {
    "name": "Бирск",
    "lat": 55.4157107,
    "long": 55.5582335
  },
  {
    "name": "Бирюсинск",
    "lat": 55.9608611,
    "long": 97.8203624
  },
  {
    "name": "Бирюч",
    "lat": 50.6483899,
    "long": 38.4006203
  },
  {
    "name": "Благовещенск",
    "lat": 50.2905935,
    "long": 127.5272186
  },
  {
    "name": "Благодарный",
    "lat": 45.0990834,
    "long": 43.4307042
  },
  {
    "name": "Бобров",
    "lat": 51.0902048,
    "long": 40.0320014
  },
  {
    "name": "Богданович",
    "lat": 56.7764419,
    "long": 62.0463692
  },
  {
    "name": "Богородицк",
    "lat": 53.7700516,
    "long": 38.1225308
  },
  {
    "name": "Богородск",
    "lat": 56.1019905,
    "long": 43.513678
  },
  {
    "name": "Боготол",
    "lat": 56.209881,
    "long": 89.5300182
  },
  {
    "name": "Богучар",
    "lat": 49.9352997,
    "long": 40.5592467
  },
  {
    "name": "Бодайбо",
    "lat": 57.8468822,
    "long": 114.1867148
  },
  {
    "name": "Бокситогорск",
    "lat": 59.4735032,
    "long": 33.8456521
  },
  {
    "name": "Болгар",
    "lat": 54.9748862,
    "long": 49.0302977
  },
  {
    "name": "Бологое",
    "lat": 57.885655,
    "long": 34.0536895
  },
  {
    "name": "Болотное",
    "lat": 55.6693773,
    "long": 84.3906599
  },
  {
    "name": "Болохово",
    "lat": 54.0820644,
    "long": 37.826844
  },
  {
    "name": "Болхов",
    "lat": 53.4440204,
    "long": 36.0076969
  },
  {
    "name": "Большой Камень",
    "lat": 43.1112737,
    "long": 132.3480354
  },
  {
    "name": "Бор",
    "lat": 56.3565179,
    "long": 44.0644851
  },
  {
    "name": "Борзя",
    "lat": 50.3875437,
    "long": 116.5235682
  },
  {
    "name": "Борисоглебск",
    "lat": 51.3654619,
    "long": 42.100947
  },
  {
    "name": "Боровичи",
    "lat": 58.3839866,
    "long": 33.9176761
  },
  {
    "name": "Боровск",
    "lat": 55.2130965,
    "long": 36.4927446
  },
  {
    "name": "Бородино",
    "lat": 55.9054308,
    "long": 94.9021138
  },
  {
    "name": "Братск",
    "lat": 56.1513951,
    "long": 101.6339892
  },
  {
    "name": "Бронницы",
    "lat": 55.4255534,
    "long": 38.2640794
  },
  {
    "name": "Брянск",
    "lat": 53.2420071,
    "long": 34.3652716
  },
  {
    "name": "Бугульма",
    "lat": 54.5363428,
    "long": 52.7895286
  },
  {
    "name": "Бугуруслан",
    "lat": 53.6522636,
    "long": 52.4326166
  },
  {
    "name": "Буденновск",
    "lat": 44.7814437,
    "long": 44.1650859
  },
  {
    "name": "Бузулук",
    "lat": 52.7881434,
    "long": 52.2623757
  },
  {
    "name": "Буинск",
    "lat": 54.9641106,
    "long": 48.2900576
  },
  {
    "name": "Буй",
    "lat": 58.473445,
    "long": 41.5306746
  },
  {
    "name": "Буйнакск",
    "lat": 42.8213799,
    "long": 47.1164452
  },
  {
    "name": "Бутурлиновка",
    "lat": 50.8313227,
    "long": 40.5977541
  },
  {
    "name": "Валдай",
    "lat": 57.9822906,
    "long": 33.2369492
  },
  {
    "name": "Валуйки",
    "lat": 50.2112799,
    "long": 38.0998765
  },
  {
    "name": "Велиж",
    "lat": 55.6058845,
    "long": 31.1857376
  },
  {
    "name": "Великие Луки",
    "lat": 56.3321847,
    "long": 30.550757
  },
  {
    "name": "Великий Новгород",
    "lat": 58.5214003,
    "long": 31.2755051
  },
  {
    "name": "Великий Устюг",
    "lat": 60.7603243,
    "long": 46.3053893
  },
  {
    "name": "Вельск",
    "lat": 61.0660057,
    "long": 42.1032858
  },
  {
    "name": "Венев",
    "lat": 54.3542431,
    "long": 38.2642325
  },
  {
    "name": "Верещагино",
    "lat": 58.0797908,
    "long": 54.6580948
  },
  {
    "name": "Верея",
    "lat": 55.3674668,
    "long": 36.1563083
  },
  {
    "name": "Верхнеуральск",
    "lat": 53.8760587,
    "long": 59.2169071
  },
  {
    "name": "Верхний Тагил",
    "lat": 57.3762768,
    "long": 59.9516521
  },
  {
    "name": "Верхний Уфалей",
    "lat": 56.0487252,
    "long": 60.231963
  },
  {
    "name": "Верхняя Пышма",
    "lat": 56.9757833,
    "long": 60.564885
  },
  {
    "name": "Верхняя Салда",
    "lat": 58.0466039,
    "long": 60.5560397
  },
  {
    "name": "Верхняя Тура",
    "lat": 58.3643839,
    "long": 59.8266854
  },
  {
    "name": "Верхотурье",
    "lat": 58.8621145,
    "long": 60.8104543
  },
  {
    "name": "Верхоянск",
    "lat": 67.5500865,
    "long": 133.3907829
  },
  {
    "name": "Весьегонск",
    "lat": 58.6584004,
    "long": 37.2568605
  },
  {
    "name": "Ветлуга",
    "lat": 57.8558395,
    "long": 45.7762692
  },
  {
    "name": "Видное",
    "lat": 55.5518323,
    "long": 37.7062062
  },
  {
    "name": "Вилюйск",
    "lat": 63.7517314,
    "long": 121.6272754
  },
  {
    "name": "Вилючинск",
    "lat": 52.930428,
    "long": 158.4057276
  },
  {
    "name": "Вихоревка",
    "lat": 56.1207708,
    "long": 101.170332
  },
  {
    "name": "Вичуга",
    "lat": 57.2044545,
    "long": 41.9131192
  },
  {
    "name": "Владивосток",
    "lat": 43.1163807,
    "long": 131.882348
  },
  {
    "name": "Владикавказ",
    "lat": 43.0205039,
    "long": 44.6819383
  },
  {
    "name": "Владимир",
    "lat": 56.1281561,
    "long": 40.4082995
  },
  {
    "name": "Волгоград",
    "lat": 48.7072005,
    "long": 44.5170207
  },
  {
    "name": "Волгодонск",
    "lat": 47.5165181,
    "long": 42.1984531
  },
  {
    "name": "Волгореченск",
    "lat": 57.4423712,
    "long": 41.1593076
  },
  {
    "name": "Волжск",
    "lat": 55.8622987,
    "long": 48.371553
  },
  {
    "name": "Волжский",
    "lat": 48.7978483,
    "long": 44.7462417
  },
  {
    "name": "Вологда",
    "lat": 59.2484186,
    "long": 39.8356461
  },
  {
    "name": "Володарск",
    "lat": 56.2168974,
    "long": 43.1597623
  },
  {
    "name": "Волоколамск",
    "lat": 56.0358121,
    "long": 35.9585027
  },
  {
    "name": "Волосово",
    "lat": 59.4445107,
    "long": 29.492277
  },
  {
    "name": "Волхов",
    "lat": 59.9006057,
    "long": 32.35212
  },
  {
    "name": "Волчанск",
    "lat": 59.9350515,
    "long": 60.0797964
  },
  {
    "name": "Вольск",
    "lat": 52.0459932,
    "long": 47.3873504
  },
  {
    "name": "Воркута",
    "lat": 67.4973484,
    "long": 64.0611045
  },
  {
    "name": "Воронеж",
    "lat": 51.6592378,
    "long": 39.1968284
  },
  {
    "name": "Ворсма",
    "lat": 55.9900425,
    "long": 43.2719879
  },
  {
    "name": "Воскресенск",
    "lat": 55.3071305,
    "long": 38.7026949
  },
  {
    "name": "Воткинск",
    "lat": 57.0517641,
    "long": 53.9874635
  },
  {
    "name": "Всеволожск",
    "lat": 60.0190094,
    "long": 30.6455834
  },
  {
    "name": "Вуктыл",
    "lat": 63.8615209,
    "long": 57.3165207
  },
  {
    "name": "Выборг",
    "lat": 60.7130748,
    "long": 28.7328813
  },
  {
    "name": "Выкса",
    "lat": 55.3207103,
    "long": 42.1679169
  },
  {
    "name": "Высоковск",
    "lat": 56.336141,
    "long": 36.5251316
  },
  {
    "name": "Высоцк",
    "lat": 60.6296511,
    "long": 28.5709914
  },
  {
    "name": "Вытегра",
    "lat": 61.0064157,
    "long": 36.4495835
  },
  {
    "name": "Вышний Волочек",
    "lat": 57.5683326,
    "long": 34.5402931
  },
  {
    "name": "Вяземский",
    "lat": 47.5354416,
    "long": 134.7553701
  },
  {
    "name": "Вязники",
    "lat": 56.2976528,
    "long": 42.2687311
  },
  {
    "name": "Вязьма",
    "lat": 55.2115563,
    "long": 34.2951196
  },
  {
    "name": "Вятские Поляны",
    "lat": 56.2286058,
    "long": 51.0614666
  },
  {
    "name": "Гаврилов Посад",
    "lat": 56.5585967,
    "long": 40.1228288
  },
  {
    "name": "Гаврилов-Ям",
    "lat": 57.3091552,
    "long": 39.8545157
  },
  {
    "name": "Гагарин",
    "lat": 55.5526532,
    "long": 34.9949049
  },
  {
    "name": "Гаджиево",
    "lat": 69.2490009,
    "long": 33.3152445
  },
  {
    "name": "Гай",
    "lat": 51.4649138,
    "long": 58.4436189
  },
  {
    "name": "Галич",
    "lat": 58.3826861,
    "long": 42.3654563
  },
  {
    "name": "Гатчина",
    "lat": 59.5650861,
    "long": 30.1281859
  },
  {
    "name": "Гвардейск",
    "lat": 54.6588981,
    "long": 21.0500584
  },
  {
    "name": "Гдов",
    "lat": 58.7432585,
    "long": 27.8263328
  },
  {
    "name": "Геленджик",
    "lat": 44.5631053,
    "long": 38.0790184
  },
  {
    "name": "Георгиевск",
    "lat": 44.1486421,
    "long": 43.4739718
  },
  {
    "name": "Глазов",
    "lat": 58.1359111,
    "long": 52.6634998
  },
  {
    "name": "Голицыно",
    "lat": 55.6189762,
    "long": 36.9855559
  },
  {
    "name": "Горбатов",
    "lat": 56.1307901,
    "long": 43.0626829
  },
  {
    "name": "Горно-Алтайск",
    "lat": 51.9582681,
    "long": 85.9602957
  },
  {
    "name": "Горнозаводск",
    "lat": 58.3743406,
    "long": 58.3230329
  },
  {
    "name": "Горняк",
    "lat": 50.9979032,
    "long": 81.4643059
  },
  {
    "name": "Городец",
    "lat": 56.6447459,
    "long": 43.4722975
  },
  {
    "name": "Городище",
    "lat": 53.2727888,
    "long": 45.702731
  },
  {
    "name": "Городовиковск",
    "lat": 46.0875351,
    "long": 41.9354039
  },
  {
    "name": "Гороховец",
    "lat": 56.2021059,
    "long": 42.692517
  },
  {
    "name": "Горячий Ключ",
    "lat": 44.6343251,
    "long": 39.1356421
  },
  {
    "name": "Грайворон",
    "lat": 50.4862699,
    "long": 35.6662957
  },
  {
    "name": "Гремячинск",
    "lat": 58.5625603,
    "long": 57.8520073
  },
  {
    "name": "Грозный",
    "lat": 43.3179243,
    "long": 45.6981102
  },
  {
    "name": "Грязи",
    "lat": 52.4873931,
    "long": 39.9331785
  },
  {
    "name": "Грязовец",
    "lat": 58.8757657,
    "long": 40.248477
  },
  {
    "name": "Губаха",
    "lat": 58.837024,
    "long": 57.5544441
  },
  {
    "name": "Губкин",
    "lat": 51.2836362,
    "long": 37.5347608
  },
  {
    "name": "Губкинский",
    "lat": 64.4456575,
    "long": 76.4714559
  },
  {
    "name": "Гудермес",
    "lat": 43.3519164,
    "long": 46.1036052
  },
  {
    "name": "Гуково",
    "lat": 48.0449422,
    "long": 39.9484635
  },
  {
    "name": "Гулькевичи",
    "lat": 45.3605769,
    "long": 40.6918484
  },
  {
    "name": "Гурьевск",
    "lat": 54.7705368,
    "long": 20.6039109
  },
  {
    "name": "Гусев",
    "lat": 54.5915477,
    "long": 22.1944114
  },
  {
    "name": "Гусиноозерск",
    "lat": 51.2865751,
    "long": 106.5230732
  },
  {
    "name": "Гусь-Хрустальный",
    "lat": 55.6198065,
    "long": 40.6578769
  },
  {
    "name": "Давлеканово",
    "lat": 54.2227617,
    "long": 55.0313419
  },
  {
    "name": "Дагестанские Огни",
    "lat": 42.1151021,
    "long": 48.1939983
  },
  {
    "name": "Далматово",
    "lat": 56.2621393,
    "long": 62.9387378
  },
  {
    "name": "Дальнегорск",
    "lat": 44.5539909,
    "long": 135.5662536
  },
  {
    "name": "Дальнереченск",
    "lat": 45.9307882,
    "long": 133.7316542
  },
  {
    "name": "Данилов",
    "lat": 58.1859542,
    "long": 40.1796765
  },
  {
    "name": "Данков",
    "lat": 53.25769,
    "long": 39.1457625
  },
  {
    "name": "Дегтярск",
    "lat": 56.7048199,
    "long": 60.0792227
  },
  {
    "name": "Дедовск",
    "lat": 55.8704718,
    "long": 37.1244724
  },
  {
    "name": "Демидов",
    "lat": 55.2682611,
    "long": 31.5062078
  },
  {
    "name": "Дербент",
    "lat": 42.058935,
    "long": 48.2908653
  },
  {
    "name": "Десногорск",
    "lat": 54.1465117,
    "long": 33.2834063
  },
  {
    "name": "Джанкой",
    "lat": 45.7092436,
    "long": 34.388332
  },
  {
    "name": "Дзержинск",
    "lat": 56.2376438,
    "long": 43.4599363
  },
  {
    "name": "Дзержинский",
    "lat": 55.6241079,
    "long": 37.8440691
  },
  {
    "name": "Дивногорск",
    "lat": 55.9577868,
    "long": 92.380085
  },
  {
    "name": "Дигора",
    "lat": 43.1567386,
    "long": 44.1551132
  },
  {
    "name": "Димитровград",
    "lat": 54.2168446,
    "long": 49.6261645
  },
  {
    "name": "Дмитриев",
    "lat": 52.1269291,
    "long": 35.0739504
  },
  {
    "name": "Дмитров",
    "lat": 56.3477176,
    "long": 37.5267184
  },
  {
    "name": "Дмитровск",
    "lat": 52.5053481,
    "long": 35.141535
  },
  {
    "name": "Дно",
    "lat": 57.8269802,
    "long": 29.9629569
  },
  {
    "name": "Добрянка",
    "lat": 58.4696353,
    "long": 56.4131294
  },
  {
    "name": "Долгопрудный",
    "lat": 55.9384901,
    "long": 37.5100527
  },
  {
    "name": "Долинск",
    "lat": 47.3255903,
    "long": 142.7945985
  },
  {
    "name": "Домодедово",
    "lat": 55.4363901,
    "long": 37.7666263
  },
  {
    "name": "Донецк",
    "lat": 48.3350928,
    "long": 39.9460654
  },
  {
    "name": "Донской",
    "lat": 53.9679582,
    "long": 38.3372104
  },
  {
    "name": "Дорогобуж",
    "lat": 54.9137794,
    "long": 33.3024596
  },
  {
    "name": "Дрезна",
    "lat": 55.7442991,
    "long": 38.8499228
  },
  {
    "name": "Дубна",
    "lat": 56.7417949,
    "long": 37.1757163
  },
  {
    "name": "Дубовка",
    "lat": 49.0555342,
    "long": 44.8270813
  },
  {
    "name": "Дудинка",
    "lat": 69.4031339,
    "long": 86.1908135
  },
  {
    "name": "Духовщина",
    "lat": 55.1950509,
    "long": 32.4012351
  },
  {
    "name": "Дюртюли",
    "lat": 55.4848047,
    "long": 54.8524875
  },
  {
    "name": "Дятьково",
    "lat": 53.5958283,
    "long": 34.355092
  },
  {
    "name": "Евпатория",
    "lat": 45.1904322,
    "long": 33.3667685
  },
  {
    "name": "Егорьевск",
    "lat": 55.3831326,
    "long": 39.0358236
  },
  {
    "name": "Ейск",
    "lat": 46.7114611,
    "long": 38.2764915
  },
  {
    "name": "Екатеринбург",
    "lat": 56.8386326,
    "long": 60.6054887
  },
  {
    "name": "Елабуга",
    "lat": 55.7566727,
    "long": 52.0544438
  },
  {
    "name": "Елец",
    "lat": 52.6151738,
    "long": 38.5289121
  },
  {
    "name": "Елизово",
    "lat": 53.1829573,
    "long": 158.3882833
  },
  {
    "name": "Ельня",
    "lat": 54.5836832,
    "long": 33.1749566
  },
  {
    "name": "Еманжелинск",
    "lat": 54.7554084,
    "long": 61.3243985
  },
  {
    "name": "Емва",
    "lat": 62.5965314,
    "long": 50.8731889
  },
  {
    "name": "Енисейск",
    "lat": 58.4485234,
    "long": 92.165237
  },
  {
    "name": "Ермолино",
    "lat": 55.1972714,
    "long": 36.5951966
  },
  {
    "name": "Ершов",
    "lat": 51.3508407,
    "long": 48.2763313
  },
  {
    "name": "Ессентуки",
    "lat": 44.044461,
    "long": 42.8589078
  },
  {
    "name": "Ефремов",
    "lat": 53.1465725,
    "long": 38.0922412
  },
  {
    "name": "Железноводск",
    "lat": 44.1320689,
    "long": 43.0306475
  },
  {
    "name": "Железногорск",
    "lat": 56.2529346,
    "long": 93.532167
  },
  {
    "name": "Железногорск-Илимский",
    "lat": 56.5847382,
    "long": 104.1141747
  },
  {
    "name": "Жердевка",
    "lat": 51.8421783,
    "long": 41.4617407
  },
  {
    "name": "Жигулевск",
    "lat": 53.4011545,
    "long": 49.494529
  },
  {
    "name": "Жиздра",
    "lat": 53.7522384,
    "long": 34.7386719
  },
  {
    "name": "Жирновск",
    "lat": 50.9767561,
    "long": 44.7857694
  },
  {
    "name": "Жуков",
    "lat": 55.0301386,
    "long": 36.7393279
  },
  {
    "name": "Жуковка",
    "lat": 53.5341219,
    "long": 33.7302166
  },
  {
    "name": "Жуковский",
    "lat": 55.5998408,
    "long": 38.1224185
  },
  {
    "name": "Завитинск",
    "lat": 50.1064678,
    "long": 129.4392897
  },
  {
    "name": "Заводоуковск",
    "lat": 56.5012193,
    "long": 66.5505094
  },
  {
    "name": "Заволжск",
    "lat": 57.4916546,
    "long": 42.1374455
  },
  {
    "name": "Заволжье",
    "lat": 56.6404237,
    "long": 43.3871565
  },
  {
    "name": "Задонск",
    "lat": 52.4004611,
    "long": 38.9205772
  },
  {
    "name": "Заинск",
    "lat": 55.2988854,
    "long": 52.0063634
  },
  {
    "name": "Закаменск",
    "lat": 50.3726774,
    "long": 103.2867452
  },
  {
    "name": "Заозерный",
    "lat": 55.9617268,
    "long": 94.7091037
  },
  {
    "name": "Заозерск",
    "lat": 69.4003895,
    "long": 32.4502225
  },
  {
    "name": "Западная Двина",
    "lat": 56.2568002,
    "long": 32.0805972
  },
  {
    "name": "Заполярный",
    "lat": 69.413232,
    "long": 30.7985332
  },
  {
    "name": "Зарайск",
    "lat": 54.7625993,
    "long": 38.8851485
  },
  {
    "name": "Заречный",
    "lat": 53.1961009,
    "long": 45.1691502
  },
  {
    "name": "Заринск",
    "lat": 53.7063495,
    "long": 84.9314703
  },
  {
    "name": "Звенигово",
    "lat": 55.9739374,
    "long": 48.0170276
  },
  {
    "name": "Звенигород",
    "lat": 55.7296168,
    "long": 36.8552843
  },
  {
    "name": "Зверево",
    "lat": 48.043451,
    "long": 40.1264948
  },
  {
    "name": "Зеленогорск",
    "lat": 56.1133001,
    "long": 94.5888736
  },
  {
    "name": "Зеленоградск",
    "lat": 54.9600226,
    "long": 20.4753274
  },
  {
    "name": "Зеленодольск",
    "lat": 55.8466751,
    "long": 48.5010882
  },
  {
    "name": "Зеленокумск",
    "lat": 44.403359,
    "long": 43.8841326
  },
  {
    "name": "Зерноград",
    "lat": 46.8494991,
    "long": 40.312765
  },
  {
    "name": "Зея",
    "lat": 53.7339151,
    "long": 127.2658079
  },
  {
    "name": "Зима",
    "lat": 53.9206865,
    "long": 102.0492066
  },
  {
    "name": "Златоуст",
    "lat": 55.1715695,
    "long": 59.6726264
  },
  {
    "name": "Злынка",
    "lat": 52.4265906,
    "long": 31.7360386
  },
  {
    "name": "Змеиногорск",
    "lat": 51.1580235,
    "long": 82.1872476
  },
  {
    "name": "Знаменск",
    "lat": 48.5865618,
    "long": 45.7367908
  },
  {
    "name": "Зубцов",
    "lat": 56.1760709,
    "long": 34.5825504
  },
  {
    "name": "Зуевка",
    "lat": 58.4031674,
    "long": 51.1330787
  },
  {
    "name": "Ивангород",
    "lat": 59.3765845,
    "long": 28.2230504
  },
  {
    "name": "Иваново",
    "lat": 56.9994677,
    "long": 40.9728231
  },
  {
    "name": "Ивантеевка",
    "lat": 55.9742303,
    "long": 37.9208755
  },
  {
    "name": "Ивдель",
    "lat": 60.6944353,
    "long": 60.4244661
  },
  {
    "name": "Игарка",
    "lat": 67.4667947,
    "long": 86.5814287
  },
  {
    "name": "Ижевск",
    "lat": 56.8527444,
    "long": 53.2113961
  },
  {
    "name": "Избербаш",
    "lat": 42.565098,
    "long": 47.871002
  },
  {
    "name": "Изобильный",
    "lat": 45.3684342,
    "long": 41.7086448
  },
  {
    "name": "Иланский",
    "lat": 56.2374163,
    "long": 96.0672656
  },
  {
    "name": "Инза",
    "lat": 53.8550467,
    "long": 46.3532786
  },
  {
    "name": "Инкерман",
    "lat": 44.6135153,
    "long": 33.6100739
  },
  {
    "name": "Иннополис",
    "lat": 55.7521544,
    "long": 48.7446161
  },
  {
    "name": "Инсар",
    "lat": 53.8770384,
    "long": 44.3696866
  },
  {
    "name": "Инта",
    "lat": 66.0368196,
    "long": 60.1154612
  },
  {
    "name": "Ипатово",
    "lat": 45.7181897,
    "long": 42.8969695
  },
  {
    "name": "Ирбит",
    "lat": 57.6838406,
    "long": 63.0576639
  },
  {
    "name": "Иркутск",
    "lat": 52.2863513,
    "long": 104.280655
  },
  {
    "name": "Исилькуль",
    "lat": 54.9096156,
    "long": 71.2816107
  },
  {
    "name": "Искитим",
    "lat": 54.6266869,
    "long": 83.2951444
  },
  {
    "name": "Истра",
    "lat": 55.9061087,
    "long": 36.8600854
  },
  {
    "name": "Ишим",
    "lat": 56.0952037,
    "long": 69.4643292
  },
  {
    "name": "Ишимбай",
    "lat": 53.4546314,
    "long": 56.043874
  },
  {
    "name": "Йошкар-Ола",
    "lat": 56.6343763,
    "long": 47.8998445
  },
  {
    "name": "Кадников",
    "lat": 59.5037947,
    "long": 40.3440473
  },
  {
    "name": "Казань",
    "lat": 55.7943877,
    "long": 49.1115312
  },
  {
    "name": "Калач",
    "lat": 50.4241213,
    "long": 41.0162858
  },
  {
    "name": "Калачинск",
    "lat": 55.0598547,
    "long": 74.5655075
  },
  {
    "name": "Калач-на-Дону",
    "lat": 48.6887569,
    "long": 43.5306866
  },
  {
    "name": "Калининград",
    "lat": 54.7073218,
    "long": 20.5072458
  },
  {
    "name": "Калининск",
    "lat": 51.4992917,
    "long": 44.4710177
  },
  {
    "name": "Калтан",
    "lat": 53.5210461,
    "long": 87.2772143
  },
  {
    "name": "Калуга",
    "lat": 54.5060439,
    "long": 36.2515933
  },
  {
    "name": "Калязин",
    "lat": 57.2579471,
    "long": 37.7821253
  },
  {
    "name": "Камбарка",
    "lat": 56.2659745,
    "long": 54.1934153
  },
  {
    "name": "Каменка",
    "lat": 53.1855474,
    "long": 44.0468501
  },
  {
    "name": "Каменногорск",
    "lat": 60.9508768,
    "long": 29.1308061
  },
  {
    "name": "Каменск-Уральский",
    "lat": 56.4149095,
    "long": 61.9189837
  },
  {
    "name": "Каменск-Шахтинский",
    "lat": 48.3204412,
    "long": 40.268874
  },
  {
    "name": "Камень-на-Оби",
    "lat": 53.7915454,
    "long": 81.3545173
  },
  {
    "name": "Камешково",
    "lat": 56.3488712,
    "long": 40.9955682
  },
  {
    "name": "Камызяк",
    "lat": 46.1105429,
    "long": 48.0732724
  },
  {
    "name": "Камышин",
    "lat": 50.0651261,
    "long": 45.3843816
  },
  {
    "name": "Камышлов",
    "lat": 56.8465469,
    "long": 62.7120432
  },
  {
    "name": "Канаш",
    "lat": 55.5069543,
    "long": 47.4917734
  },
  {
    "name": "Кандалакша",
    "lat": 67.1567298,
    "long": 32.4142303
  },
  {
    "name": "Канск",
    "lat": 56.2049776,
    "long": 95.7051246
  },
  {
    "name": "Карабаново",
    "lat": 56.3133447,
    "long": 38.7034267
  },
  {
    "name": "Карабаш",
    "lat": 55.4852076,
    "long": 60.2358959
  },
  {
    "name": "Карабулак",
    "lat": 43.3054762,
    "long": 44.9094521
  },
  {
    "name": "Карасук",
    "lat": 53.7343772,
    "long": 78.042457
  },
  {
    "name": "Карачаевск",
    "lat": 43.773197,
    "long": 41.9143726
  },
  {
    "name": "Карачев",
    "lat": 53.1297194,
    "long": 34.9887859
  },
  {
    "name": "Каргат",
    "lat": 55.1943829,
    "long": 80.2831324
  },
  {
    "name": "Каргополь",
    "lat": 61.5008762,
    "long": 38.9636415
  },
  {
    "name": "Карпинск",
    "lat": 59.7664444,
    "long": 60.0011798
  },
  {
    "name": "Карталы",
    "lat": 53.0536101,
    "long": 60.647712
  },
  {
    "name": "Касимов",
    "lat": 54.9373788,
    "long": 41.3912912
  },
  {
    "name": "Касли",
    "lat": 55.8868045,
    "long": 60.7422529
  },
  {
    "name": "Каспийск",
    "lat": 42.8916599,
    "long": 47.6366674
  },
  {
    "name": "Катав-Ивановск",
    "lat": 54.7520187,
    "long": 58.1983706
  },
  {
    "name": "Катайск",
    "lat": 56.2908118,
    "long": 62.5800669
  },
  {
    "name": "Качканар",
    "lat": 58.7051759,
    "long": 59.4840198
  },
  {
    "name": "Кашин",
    "lat": 57.3600486,
    "long": 37.6118674
  },
  {
    "name": "Кашира",
    "lat": 54.8534263,
    "long": 38.1903818
  },
  {
    "name": "Кедровый",
    "lat": 57.5618465,
    "long": 79.5678914
  },
  {
    "name": "Кемерово",
    "lat": 55.3909721,
    "long": 86.0467864
  },
  {
    "name": "Кемь",
    "lat": 64.9543657,
    "long": 34.5948547
  },
  {
    "name": "Керчь",
    "lat": 45.3561128,
    "long": 36.4674285
  },
  {
    "name": "Кизел",
    "lat": 59.0511764,
    "long": 57.6471214
  },
  {
    "name": "Кизилюрт",
    "lat": 43.2039094,
    "long": 46.8729311
  },
  {
    "name": "Кизляр",
    "lat": 43.8483915,
    "long": 46.7232828
  },
  {
    "name": "Кимовск",
    "lat": 53.9698378,
    "long": 38.5380267
  },
  {
    "name": "Кимры",
    "lat": 56.873359,
    "long": 37.3557064
  },
  {
    "name": "Кингисепп",
    "lat": 59.3739407,
    "long": 28.6112981
  },
  {
    "name": "Кинель",
    "lat": 53.2209985,
    "long": 50.6343039
  },
  {
    "name": "Кинешма",
    "lat": 57.4425441,
    "long": 42.1690039
  },
  {
    "name": "Киреевск",
    "lat": 53.9321173,
    "long": 37.9220791
  },
  {
    "name": "Киренск",
    "lat": 57.7757126,
    "long": 108.1107766
  },
  {
    "name": "Киржач",
    "lat": 56.1485263,
    "long": 38.8635035
  },
  {
    "name": "Кириллов",
    "lat": 59.8590353,
    "long": 38.3749854
  },
  {
    "name": "Кириши",
    "lat": 59.4742626,
    "long": 32.0625536
  },
  {
    "name": "Киров",
    "lat": 54.0790823,
    "long": 34.3077508
  },
  {
    "name": "Кировград",
    "lat": 57.4298451,
    "long": 60.0623588
  },
  {
    "name": "Кирово-Чепецк",
    "lat": 58.5559921,
    "long": 50.0317608
  },
  {
    "name": "Кировск",
    "lat": 59.875371,
    "long": 30.9815205
  },
  {
    "name": "Кирс",
    "lat": 59.3400586,
    "long": 52.2415895
  },
  {
    "name": "Кирсанов",
    "lat": 52.650594,
    "long": 42.7284872
  },
  {
    "name": "Киселевск",
    "lat": 54.0060382,
    "long": 86.6367387
  },
  {
    "name": "Кисловодск",
    "lat": 43.905235,
    "long": 42.7167187
  },
  {
    "name": "Клин",
    "lat": 56.3424886,
    "long": 36.7240912
  },
  {
    "name": "Клинцы",
    "lat": 52.7529052,
    "long": 32.2339161
  },
  {
    "name": "Княгинино",
    "lat": 55.8205157,
    "long": 45.0322947
  },
  {
    "name": "Ковдор",
    "lat": 67.5661466,
    "long": 30.4742082
  },
  {
    "name": "Ковров",
    "lat": 56.3553895,
    "long": 41.3169568
  },
  {
    "name": "Ковылкино",
    "lat": 54.0391464,
    "long": 43.9191229
  },
  {
    "name": "Когалым",
    "lat": 62.2638914,
    "long": 74.4828687
  },
  {
    "name": "Кодинск",
    "lat": 58.6033961,
    "long": 99.1797563
  },
  {
    "name": "Козельск",
    "lat": 54.0348417,
    "long": 35.7807136
  },
  {
    "name": "Козловка",
    "lat": 55.8406526,
    "long": 48.2579372
  },
  {
    "name": "Козьмодемьянск",
    "lat": 56.333346,
    "long": 46.5466282
  },
  {
    "name": "Кола",
    "lat": 68.8785079,
    "long": 33.0262014
  },
  {
    "name": "Кологрив",
    "lat": 58.826988,
    "long": 44.3185323
  },
  {
    "name": "Коломна",
    "lat": 55.1027797,
    "long": 38.7531734
  },
  {
    "name": "Колпашево",
    "lat": 58.3114716,
    "long": 82.9027528
  },
  {
    "name": "Кольчугино",
    "lat": 56.3327616,
    "long": 39.391201
  },
  {
    "name": "Коммунар",
    "lat": 59.6215929,
    "long": 30.393466
  },
  {
    "name": "Комсомольск",
    "lat": 57.0273907,
    "long": 40.3775952
  },
  {
    "name": "Комсомольск-на-Амуре",
    "lat": 50.550011,
    "long": 137.0079286
  },
  {
    "name": "Конаково",
    "lat": 56.7275533,
    "long": 36.8011699
  },
  {
    "name": "Кондопога",
    "lat": 62.2059866,
    "long": 34.2681778
  },
  {
    "name": "Кондрово",
    "lat": 54.796051,
    "long": 35.9276099
  },
  {
    "name": "Константиновск",
    "lat": 47.5773456,
    "long": 41.0967362
  },
  {
    "name": "Копейск",
    "lat": 55.1167545,
    "long": 61.6180809
  },
  {
    "name": "Кораблино",
    "lat": 53.9245422,
    "long": 40.0227867
  },
  {
    "name": "Кореновск",
    "lat": 45.4640868,
    "long": 39.4590178
  },
  {
    "name": "Коркино",
    "lat": 54.8903023,
    "long": 61.4034541
  },
  {
    "name": "Королев",
    "lat": 55.9162558,
    "long": 37.8545224
  },
  {
    "name": "Короча",
    "lat": 50.8130123,
    "long": 37.1896543
  },
  {
    "name": "Корсаков",
    "lat": 46.6323995,
    "long": 142.7994094
  },
  {
    "name": "Коряжма",
    "lat": 61.2885993,
    "long": 47.1002315
  },
  {
    "name": "Костерево",
    "lat": 55.9336424,
    "long": 39.624822
  },
  {
    "name": "Костомукша",
    "lat": 64.5889946,
    "long": 30.6015567
  },
  {
    "name": "Кострома",
    "lat": 57.8029445,
    "long": 40.9907282
  },
  {
    "name": "Котельники",
    "lat": 55.659898,
    "long": 37.8632865
  },
  {
    "name": "Котельниково",
    "lat": 47.6310808,
    "long": 43.1331198
  },
  {
    "name": "Котельнич",
    "lat": 58.3035238,
    "long": 48.3474288
  },
  {
    "name": "Котлас",
    "lat": 61.2529842,
    "long": 46.6331915
  },
  {
    "name": "Котово",
    "lat": 50.3205433,
    "long": 44.8031864
  },
  {
    "name": "Котовск",
    "lat": 52.592393,
    "long": 41.5102486
  },
  {
    "name": "Кохма",
    "lat": 56.9325151,
    "long": 41.0933071
  },
  {
    "name": "Красавино",
    "lat": 60.9613991,
    "long": 46.481465
  },
  {
    "name": "Красноармейск",
    "lat": 51.0268595,
    "long": 45.7011086
  },
  {
    "name": "Красновишерск",
    "lat": 60.3902242,
    "long": 57.0537244
  },
  {
    "name": "Красногорск",
    "lat": 55.8318475,
    "long": 37.32942
  },
  {
    "name": "Краснодар",
    "lat": 45.040235,
    "long": 38.9760801
  },
  {
    "name": "Краснозаводск",
    "lat": 56.4408723,
    "long": 38.2320671
  },
  {
    "name": "Краснознаменск",
    "lat": 54.9452612,
    "long": 22.4928511
  },
  {
    "name": "Краснокаменск",
    "lat": 50.092858,
    "long": 118.0323407
  },
  {
    "name": "Краснокамск",
    "lat": 58.0820946,
    "long": 55.7479797
  },
  {
    "name": "Красноперекопск",
    "lat": 45.9537956,
    "long": 33.7921523
  },
  {
    "name": "Краснослободск",
    "lat": 48.7068777,
    "long": 44.5631799
  },
  {
    "name": "Краснотурьинск",
    "lat": 59.7636934,
    "long": 60.1934451
  },
  {
    "name": "Красноуральск",
    "lat": 58.3486334,
    "long": 60.0409011
  },
  {
    "name": "Красноуфимск",
    "lat": 56.6122864,
    "long": 57.7636958
  },
  {
    "name": "Красноярск",
    "lat": 56.009466,
    "long": 92.8524162
  },
  {
    "name": "Красный Кут",
    "lat": 50.9596867,
    "long": 46.9712472
  },
  {
    "name": "Красный Сулин",
    "lat": 47.8830826,
    "long": 40.0781385
  },
  {
    "name": "Красный Холм",
    "lat": 58.0570193,
    "long": 37.1125975
  },
  {
    "name": "Кременки",
    "lat": 54.8863306,
    "long": 37.116878
  },
  {
    "name": "Кропоткин",
    "lat": 45.4332464,
    "long": 40.5727852
  },
  {
    "name": "Крымск",
    "lat": 44.9344108,
    "long": 37.9855314
  },
  {
    "name": "Кстово",
    "lat": 56.1433353,
    "long": 44.1665081
  },
  {
    "name": "Кубинка",
    "lat": 55.5755679,
    "long": 36.6952487
  },
  {
    "name": "Кувандык",
    "lat": 51.4784845,
    "long": 57.3612029
  },
  {
    "name": "Кувшиново",
    "lat": 57.0263733,
    "long": 34.1676435
  },
  {
    "name": "Кудымкар",
    "lat": 59.0168605,
    "long": 54.6573459
  },
  {
    "name": "Кузнецк",
    "lat": 53.1131686,
    "long": 46.6052497
  },
  {
    "name": "Куйбышев",
    "lat": 55.4684104,
    "long": 78.3241042
  },
  {
    "name": "Кулебаки",
    "lat": 55.429716,
    "long": 42.512483
  },
  {
    "name": "Кумертау",
    "lat": 52.7565537,
    "long": 55.7969915
  },
  {
    "name": "Кунгур",
    "lat": 57.4283217,
    "long": 56.9437787
  },
  {
    "name": "Купино",
    "lat": 54.3660317,
    "long": 77.2972969
  },
  {
    "name": "Курган",
    "lat": 55.4443448,
    "long": 65.3161339
  },
  {
    "name": "Курганинск",
    "lat": 44.8876442,
    "long": 40.5913858
  },
  {
    "name": "Курильск",
    "lat": 45.2271915,
    "long": 147.8796713
  },
  {
    "name": "Курлово",
    "lat": 55.4525994,
    "long": 40.6124362
  },
  {
    "name": "Куровское",
    "lat": 55.5791491,
    "long": 38.9208543
  },
  {
    "name": "Курск",
    "lat": 51.7303391,
    "long": 36.1926448
  },
  {
    "name": "Куртамыш",
    "lat": 54.9368491,
    "long": 64.4203009
  },
  {
    "name": "Курчатов",
    "lat": 51.6605475,
    "long": 35.6571711
  },
  {
    "name": "Куса",
    "lat": 55.3385156,
    "long": 59.4386474
  },
  {
    "name": "Кушва",
    "lat": 58.2825406,
    "long": 59.7646113
  },
  {
    "name": "Кызыл",
    "lat": 51.7191542,
    "long": 94.4377234
  },
  {
    "name": "Кыштым",
    "lat": 55.7060048,
    "long": 60.5563271
  },
  {
    "name": "Кяхта",
    "lat": 50.3466291,
    "long": 106.4534938
  },
  {
    "name": "Лабинск",
    "lat": 44.6353153,
    "long": 40.724385
  },
  {
    "name": "Лабытнанги",
    "lat": 66.6592376,
    "long": 66.3882628
  },
  {
    "name": "Лагань",
    "lat": 45.3929617,
    "long": 47.3432943
  },
  {
    "name": "Ладушкин",
    "lat": 54.5693538,
    "long": 20.1691909
  },
  {
    "name": "Лаишево",
    "lat": 55.4042646,
    "long": 49.5498201
  },
  {
    "name": "Лакинск",
    "lat": 56.0180614,
    "long": 39.9564706
  },
  {
    "name": "Лангепас",
    "lat": 61.2536667,
    "long": 75.1807905
  },
  {
    "name": "Лахденпохья",
    "lat": 61.5189466,
    "long": 30.199592
  },
  {
    "name": "Лебедянь",
    "lat": 53.0156678,
    "long": 39.143498
  },
  {
    "name": "Лениногорск",
    "lat": 54.5966917,
    "long": 52.4432118
  },
  {
    "name": "Ленинск",
    "lat": 48.6936234,
    "long": 45.1992835
  },
  {
    "name": "Ленинск-Кузнецкий",
    "lat": 54.6674092,
    "long": 86.1796724
  },
  {
    "name": "Ленск",
    "lat": 60.7276036,
    "long": 114.9549103
  },
  {
    "name": "Лермонтов",
    "lat": 44.1052526,
    "long": 42.9731433
  },
  {
    "name": "Лесной",
    "lat": 58.634981,
    "long": 59.7980528
  },
  {
    "name": "Лесозаводск",
    "lat": 45.4780192,
    "long": 133.4185501
  },
  {
    "name": "Лесосибирск",
    "lat": 58.2218201,
    "long": 92.5036986
  },
  {
    "name": "Ливны",
    "lat": 52.4285122,
    "long": 37.603944
  },
  {
    "name": "Ликино-Дулево",
    "lat": 55.7078531,
    "long": 38.9577103
  },
  {
    "name": "Липецк",
    "lat": 52.6103027,
    "long": 39.5946266
  },
  {
    "name": "Липки",
    "lat": 53.9418109,
    "long": 37.7019452
  },
  {
    "name": "Лиски",
    "lat": 50.9944734,
    "long": 39.518302
  },
  {
    "name": "Лихославль",
    "lat": 57.122256,
    "long": 35.4667886
  },
  {
    "name": "Лобня",
    "lat": 56.0328745,
    "long": 37.4614671
  },
  {
    "name": "Лодейное Поле",
    "lat": 60.7320564,
    "long": 33.5522225
  },
  {
    "name": "Лосино-Петровский",
    "lat": 55.8714441,
    "long": 38.2005377
  },
  {
    "name": "Луга",
    "lat": 58.7373818,
    "long": 29.8466657
  },
  {
    "name": "Луза",
    "lat": 60.6290781,
    "long": 47.2612069
  },
  {
    "name": "Лукоянов",
    "lat": 55.0327349,
    "long": 44.4933829
  },
  {
    "name": "Луховицы",
    "lat": 54.9651617,
    "long": 39.0261346
  },
  {
    "name": "Лысково",
    "lat": 56.0262298,
    "long": 45.0356702
  },
  {
    "name": "Лысьва",
    "lat": 58.0995987,
    "long": 57.8085728
  },
  {
    "name": "Лыткарино",
    "lat": 55.5778065,
    "long": 37.9034952
  },
  {
    "name": "Льгов",
    "lat": 51.6596935,
    "long": 35.2611592
  },
  {
    "name": "Любань",
    "lat": 59.3492573,
    "long": 31.2485276
  },
  {
    "name": "Люберцы",
    "lat": 55.700416,
    "long": 37.9606496
  },
  {
    "name": "Любим",
    "lat": 58.3619868,
    "long": 40.6869581
  },
  {
    "name": "Людиново",
    "lat": 53.8701406,
    "long": 34.4385498
  },
  {
    "name": "Лянтор",
    "lat": 61.6391639,
    "long": 72.1793828
  },
  {
    "name": "Магадан",
    "lat": 59.5681763,
    "long": 150.8085289
  },
  {
    "name": "Магас",
    "lat": 43.1686967,
    "long": 44.8130849
  },
  {
    "name": "Магнитогорск",
    "lat": 53.4071891,
    "long": 58.9791432
  },
  {
    "name": "Майкоп",
    "lat": 44.6098268,
    "long": 40.1006527
  },
  {
    "name": "Майский",
    "lat": 43.6281779,
    "long": 44.0516663
  },
  {
    "name": "Макаров",
    "lat": 48.6236287,
    "long": 142.7803508
  },
  {
    "name": "Макарьев",
    "lat": 57.8808916,
    "long": 43.8014428
  },
  {
    "name": "Макушино",
    "lat": 55.2154025,
    "long": 67.2452558
  },
  {
    "name": "Малая Вишера",
    "lat": 58.8458076,
    "long": 32.2247984
  },
  {
    "name": "Малгобек",
    "lat": 43.5097009,
    "long": 44.5901517
  },
  {
    "name": "Малмыж",
    "lat": 56.5243722,
    "long": 50.6782757
  },
  {
    "name": "Малоархангельск",
    "lat": 52.4001151,
    "long": 36.5037931
  },
  {
    "name": "Малоярославец",
    "lat": 55.0176756,
    "long": 36.4632122
  },
  {
    "name": "Мамадыш",
    "lat": 55.7149876,
    "long": 51.4128614
  },
  {
    "name": "Мамоново",
    "lat": 54.4645591,
    "long": 19.9454114
  },
  {
    "name": "Мантурово",
    "lat": 58.3264667,
    "long": 44.7575036
  },
  {
    "name": "Мариинск",
    "lat": 56.2127836,
    "long": 87.7454392
  },
  {
    "name": "Мариинский Посад",
    "lat": 56.111968,
    "long": 47.7142676
  },
  {
    "name": "Маркс",
    "lat": 51.7133973,
    "long": 46.7400684
  },
  {
    "name": "Махачкала",
    "lat": 42.9848572,
    "long": 47.5046303
  },
  {
    "name": "Мглин",
    "lat": 53.0600644,
    "long": 32.8467217
  },
  {
    "name": "Мегион",
    "lat": 61.0318946,
    "long": 76.1024772
  },
  {
    "name": "Медвежьегорск",
    "lat": 62.9127678,
    "long": 34.4567614
  },
  {
    "name": "Медногорск",
    "lat": 51.4039421,
    "long": 57.5832185
  },
  {
    "name": "Медынь",
    "lat": 54.9690755,
    "long": 35.887313
  },
  {
    "name": "Межгорье",
    "lat": 54.239683,
    "long": 57.96146
  },
  {
    "name": "Междуреченск",
    "lat": 53.6865695,
    "long": 88.0703888
  },
  {
    "name": "Мезень",
    "lat": 65.8398386,
    "long": 44.2531865
  },
  {
    "name": "Меленки",
    "lat": 55.3387017,
    "long": 41.634124
  },
  {
    "name": "Мелеуз",
    "lat": 52.9590637,
    "long": 55.9283483
  },
  {
    "name": "Менделеевск",
    "lat": 55.8950646,
    "long": 52.3144177
  },
  {
    "name": "Мензелинск",
    "lat": 55.7270908,
    "long": 53.1005321
  },
  {
    "name": "Мещовск",
    "lat": 54.3191127,
    "long": 35.2816065
  },
  {
    "name": "Миасс",
    "lat": 55.0455774,
    "long": 60.1077757
  },
  {
    "name": "Микунь",
    "lat": 62.3580188,
    "long": 50.0719738
  },
  {
    "name": "Миллерово",
    "lat": 48.925821,
    "long": 40.3983302
  },
  {
    "name": "Минеральные Воды",
    "lat": 44.2088942,
    "long": 43.1383482
  },
  {
    "name": "Минусинск",
    "lat": 53.7105509,
    "long": 91.6871866
  },
  {
    "name": "Миньяр",
    "lat": 55.0709601,
    "long": 57.5484435
  },
  {
    "name": "Мирный",
    "lat": 62.7644267,
    "long": 40.3359976
  },
  {
    "name": "Михайлов",
    "lat": 54.2296493,
    "long": 39.0090857
  },
  {
    "name": "Михайловка",
    "lat": 50.0708749,
    "long": 43.2400847
  },
  {
    "name": "Михайловск",
    "lat": 56.4369736,
    "long": 59.113865
  },
  {
    "name": "Мичуринск",
    "lat": 52.891294,
    "long": 40.510475
  },
  {
    "name": "Могоча",
    "lat": 53.7362465,
    "long": 119.7661232
  },
  {
    "name": "Можайск",
    "lat": 55.5069819,
    "long": 36.0240724
  },
  {
    "name": "Можга",
    "lat": 56.4427219,
    "long": 52.2138882
  },
  {
    "name": "Моздок",
    "lat": 43.7471209,
    "long": 44.6571456
  },
  {
    "name": "Мончегорск",
    "lat": 67.9385206,
    "long": 32.9358886
  },
  {
    "name": "Морозовск",
    "lat": 48.3511724,
    "long": 41.8308006
  },
  {
    "name": "Моршанск",
    "lat": 53.4436469,
    "long": 41.8115687
  },
  {
    "name": "Мосальск",
    "lat": 54.4825589,
    "long": 34.987206
  },
  {
    "name": "Муравленко",
    "lat": 63.794188,
    "long": 74.494913
  },
  {
    "name": "Мураши",
    "lat": 59.3956347,
    "long": 48.9637651
  },
  {
    "name": "Мурманск",
    "lat": 69.0076958,
    "long": 33.0686019
  },
  {
    "name": "Муром",
    "lat": 55.5632276,
    "long": 42.023006
  },
  {
    "name": "Мценск",
    "lat": 53.2790021,
    "long": 36.574992
  },
  {
    "name": "Мыски",
    "lat": 53.7125516,
    "long": 87.8056657
  },
  {
    "name": "Мытищи",
    "lat": 55.9104647,
    "long": 37.7363702
  },
  {
    "name": "Мышкин",
    "lat": 57.7881664,
    "long": 38.4542816
  },
  {
    "name": "Набережные Челны",
    "lat": 55.7436475,
    "long": 52.3958739
  },
  {
    "name": "Навашино",
    "lat": 55.5439105,
    "long": 42.1887734
  },
  {
    "name": "Наволоки",
    "lat": 57.4678426,
    "long": 41.9607371
  },
  {
    "name": "Надым",
    "lat": 65.5377514,
    "long": 72.5182746
  },
  {
    "name": "Назарово",
    "lat": 56.0113176,
    "long": 90.4167947
  },
  {
    "name": "Назрань",
    "lat": 43.2257977,
    "long": 44.764685
  },
  {
    "name": "Называевск",
    "lat": 55.5688811,
    "long": 71.3502572
  },
  {
    "name": "Нальчик",
    "lat": 43.4846312,
    "long": 43.6070316
  },
  {
    "name": "Нариманов",
    "lat": 46.6916597,
    "long": 47.8501624
  },
  {
    "name": "Наро-Фоминск",
    "lat": 55.3802749,
    "long": 36.7608038
  },
  {
    "name": "Нарткала",
    "lat": 43.5577208,
    "long": 43.8576411
  },
  {
    "name": "Нарьян-Мар",
    "lat": 67.6381525,
    "long": 53.0069336
  },
  {
    "name": "Находка",
    "lat": 42.8240404,
    "long": 132.8927812
  },
  {
    "name": "Невель",
    "lat": 56.0201544,
    "long": 29.9240505
  },
  {
    "name": "Невельск",
    "lat": 46.6527314,
    "long": 141.8631741
  },
  {
    "name": "Невинномысск",
    "lat": 44.6227404,
    "long": 41.9476147
  },
  {
    "name": "Невьянск",
    "lat": 57.491233,
    "long": 60.2181839
  },
  {
    "name": "Нелидово",
    "lat": 56.2232417,
    "long": 32.7766656
  },
  {
    "name": "Неман",
    "lat": 55.0315543,
    "long": 22.0323961
  },
  {
    "name": "Нерехта",
    "lat": 57.4543706,
    "long": 40.5725438
  },
  {
    "name": "Нерчинск",
    "lat": 51.9595512,
    "long": 116.5854018
  },
  {
    "name": "Нерюнгри",
    "lat": 56.6600322,
    "long": 124.72031
  },
  {
    "name": "Нестеров",
    "lat": 54.6314454,
    "long": 22.5713658
  },
  {
    "name": "Нефтегорск",
    "lat": 52.797259,
    "long": 51.1637126
  },
  {
    "name": "Нефтекамск",
    "lat": 56.0883075,
    "long": 54.2483391
  },
  {
    "name": "Нефтекумск",
    "lat": 44.7544866,
    "long": 44.9865041
  },
  {
    "name": "Нефтеюганск",
    "lat": 61.0882837,
    "long": 72.6164185
  },
  {
    "name": "Нея",
    "lat": 58.2944499,
    "long": 43.8780965
  },
  {
    "name": "Нижневартовск",
    "lat": 60.9397379,
    "long": 76.5696206
  },
  {
    "name": "Нижнекамск",
    "lat": 55.6311963,
    "long": 51.814407
  },
  {
    "name": "Нижнеудинск",
    "lat": 54.8969105,
    "long": 99.0313481
  },
  {
    "name": "Нижние Серги",
    "lat": 56.6544606,
    "long": 59.2952291
  },
  {
    "name": "Нижний Ломов",
    "lat": 53.5301274,
    "long": 43.6729216
  },
  {
    "name": "Нижний Новгород",
    "lat": 56.3242093,
    "long": 44.0053948
  },
  {
    "name": "Нижний Тагил",
    "lat": 57.9101038,
    "long": 59.9813242
  },
  {
    "name": "Нижняя Салда",
    "lat": 58.0749243,
    "long": 60.7026555
  },
  {
    "name": "Нижняя Тура",
    "lat": 58.6310942,
    "long": 59.8521265
  },
  {
    "name": "Николаевск",
    "lat": 50.0166952,
    "long": 45.4733204
  },
  {
    "name": "Николаевск-на-Амуре",
    "lat": 53.1461943,
    "long": 140.7109642
  },
  {
    "name": "Никольск",
    "lat": 59.5350162,
    "long": 45.4575468
  },
  {
    "name": "Никольское",
    "lat": 59.7042633,
    "long": 30.7874879
  },
  {
    "name": "Новая Ладога",
    "lat": 60.1100013,
    "long": 32.3141446
  },
  {
    "name": "Новая Ляля",
    "lat": 59.053961,
    "long": 60.5945405
  },
  {
    "name": "Новоалександровск",
    "lat": 45.4933561,
    "long": 41.2154482
  },
  {
    "name": "Новоалтайск",
    "lat": 53.4120811,
    "long": 83.9311249
  },
  {
    "name": "Новоаннинский",
    "lat": 50.5296873,
    "long": 42.6666038
  },
  {
    "name": "Нововоронеж",
    "lat": 51.3092463,
    "long": 39.2162865
  },
  {
    "name": "Новодвинск",
    "lat": 64.4136023,
    "long": 40.8208003
  },
  {
    "name": "Новозыбков",
    "lat": 52.5371426,
    "long": 31.9356826
  },
  {
    "name": "Новокубанск",
    "lat": 45.1038782,
    "long": 41.0473679
  },
  {
    "name": "Новокузнецк",
    "lat": 53.7942757,
    "long": 87.2144046
  },
  {
    "name": "Новокуйбышевск",
    "lat": 53.0995303,
    "long": 49.9477662
  },
  {
    "name": "Новомичуринск",
    "lat": 54.0377979,
    "long": 39.7467023
  },
  {
    "name": "Новомосковск",
    "lat": 54.0109754,
    "long": 38.2915652
  },
  {
    "name": "Новопавловск",
    "lat": 43.9617565,
    "long": 43.6342855
  },
  {
    "name": "Новоржев",
    "lat": 57.0298332,
    "long": 29.343333
  },
  {
    "name": "Новороссийск",
    "lat": 44.7234264,
    "long": 37.7687218
  },
  {
    "name": "Новосибирск",
    "lat": 55.0281016,
    "long": 82.9210575
  },
  {
    "name": "Новосиль",
    "lat": 52.9747225,
    "long": 37.0438402
  },
  {
    "name": "Новосокольники",
    "lat": 56.3407627,
    "long": 30.1527712
  },
  {
    "name": "Новотроицк",
    "lat": 51.1965071,
    "long": 58.3017455
  },
  {
    "name": "Новоузенск",
    "lat": 50.4551744,
    "long": 48.1412622
  },
  {
    "name": "Новоульяновск",
    "lat": 54.1447691,
    "long": 48.3911701
  },
  {
    "name": "Новоуральск",
    "lat": 57.2471507,
    "long": 60.095701
  },
  {
    "name": "Новохоперск",
    "lat": 51.0953461,
    "long": 41.6173714
  },
  {
    "name": "Новочебоксарск",
    "lat": 56.109486,
    "long": 47.4791429
  },
  {
    "name": "Новочеркасск",
    "lat": 47.4119248,
    "long": 40.1042066
  },
  {
    "name": "Новошахтинск",
    "lat": 47.7576522,
    "long": 39.9364709
  },
  {
    "name": "Новый Оскол",
    "lat": 50.7635162,
    "long": 37.8774026
  },
  {
    "name": "Новый Уренгой",
    "lat": 66.0840036,
    "long": 76.6810032
  },
  {
    "name": "Ногинск",
    "lat": 55.8686239,
    "long": 38.4621635
  },
  {
    "name": "Нолинск",
    "lat": 57.5596946,
    "long": 49.9357867
  },
  {
    "name": "Норильск",
    "lat": 69.3490828,
    "long": 88.2009965
  },
  {
    "name": "Ноябрьск",
    "lat": 63.201846,
    "long": 75.4509665
  },
  {
    "name": "Нурлат",
    "lat": 54.4281578,
    "long": 50.8050431
  },
  {
    "name": "Нытва",
    "lat": 57.9337429,
    "long": 55.3357261
  },
  {
    "name": "Нюрба",
    "lat": 63.2828775,
    "long": 118.324325
  },
  {
    "name": "Нягань",
    "lat": 62.1454839,
    "long": 65.3944361
  },
  {
    "name": "Нязепетровск",
    "lat": 56.0537199,
    "long": 59.6096791
  },
  {
    "name": "Няндома",
    "lat": 61.6653735,
    "long": 40.2061699
  },
  {
    "name": "Облучье",
    "lat": 49.0188344,
    "long": 131.0539984
  },
  {
    "name": "Обнинск",
    "lat": 55.0943892,
    "long": 36.6121785
  },
  {
    "name": "Обоянь",
    "lat": 51.212012,
    "long": 36.275425
  },
  {
    "name": "Обь",
    "lat": 54.9945882,
    "long": 82.6937925
  },
  {
    "name": "Одинцово",
    "lat": 55.6789292,
    "long": 37.2636389
  },
  {
    "name": "Озерск",
    "lat": 54.4084804,
    "long": 22.013508
  },
  {
    "name": "Озеры",
    "lat": 54.8539944,
    "long": 38.55987
  },
  {
    "name": "Октябрьск",
    "lat": 53.1640886,
    "long": 48.6707463
  },
  {
    "name": "Октябрьский",
    "lat": 54.4815344,
    "long": 53.4656611
  },
  {
    "name": "Окуловка",
    "lat": 58.3908717,
    "long": 33.2902474
  },
  {
    "name": "Олекминск",
    "lat": 60.3758203,
    "long": 120.406013
  },
  {
    "name": "Оленегорск",
    "lat": 68.1422068,
    "long": 33.2670094
  },
  {
    "name": "Олонец",
    "lat": 60.9793604,
    "long": 32.9726031
  },
  {
    "name": "Омск",
    "lat": 54.9848136,
    "long": 73.3674638
  },
  {
    "name": "Омутнинск",
    "lat": 58.6697684,
    "long": 52.1893554
  },
  {
    "name": "Онега",
    "lat": 63.9163966,
    "long": 38.0805749
  },
  {
    "name": "Опочка",
    "lat": 56.7107956,
    "long": 28.6717455
  },
  {
    "name": "Орёл",
    "lat": 52.9672573,
    "long": 36.0696479
  },
  {
    "name": "Оренбург",
    "lat": 51.7875191,
    "long": 55.1017379
  },
  {
    "name": "Орехово-Зуево",
    "lat": 55.8151729,
    "long": 38.9870711
  },
  {
    "name": "Орлов",
    "lat": 58.5389402,
    "long": 48.8929268
  },
  {
    "name": "Орск",
    "lat": 51.2293069,
    "long": 58.4751889
  },
  {
    "name": "Оса",
    "lat": 57.2889992,
    "long": 55.4688982
  },
  {
    "name": "Осинники",
    "lat": 53.5987397,
    "long": 87.3369948
  },
  {
    "name": "Осташков",
    "lat": 57.1457205,
    "long": 33.1116707
  },
  {
    "name": "Остров",
    "lat": 57.3452408,
    "long": 28.3437107
  },
  {
    "name": "Островной",
    "lat": 68.0509133,
    "long": 39.5076034
  },
  {
    "name": "Острогожск",
    "lat": 50.8678083,
    "long": 39.0406398
  },
  {
    "name": "Отрадное",
    "lat": 59.772596,
    "long": 30.7988403
  },
  {
    "name": "Отрадный",
    "lat": 53.3800609,
    "long": 51.3438695
  },
  {
    "name": "Оха",
    "lat": 53.5868238,
    "long": 142.941221
  },
  {
    "name": "Оханск",
    "lat": 57.7178946,
    "long": 55.387153
  },
  {
    "name": "Очер",
    "lat": 57.8851991,
    "long": 54.7161756
  },
  {
    "name": "Павлово",
    "lat": 55.9797995,
    "long": 43.0996232
  },
  {
    "name": "Павловск",
    "lat": 50.4533684,
    "long": 40.1369087
  },
  {
    "name": "Павловский Посад",
    "lat": 55.7806718,
    "long": 38.6596047
  },
  {
    "name": "Палласовка",
    "lat": 50.0501422,
    "long": 46.8803355
  },
  {
    "name": "Партизанск",
    "lat": 43.1279833,
    "long": 133.1264754
  },
  {
    "name": "Певек",
    "lat": 69.7018051,
    "long": 170.2999194
  },
  {
    "name": "Пенза",
    "lat": 53.1753884,
    "long": 45.0347408
  },
  {
    "name": "Первомайск",
    "lat": 54.8676182,
    "long": 43.8012829
  },
  {
    "name": "Первоуральск",
    "lat": 56.9081665,
    "long": 59.9429205
  },
  {
    "name": "Перевоз",
    "lat": 55.596904,
    "long": 44.5450268
  },
  {
    "name": "Пересвет",
    "lat": 56.4158828,
    "long": 38.1733567
  },
  {
    "name": "Переславль-Залесский",
    "lat": 56.7360435,
    "long": 38.8543064
  },
  {
    "name": "Пермь",
    "lat": 58.0103211,
    "long": 56.2341778
  },
  {
    "name": "Пестово",
    "lat": 58.5973944,
    "long": 35.8144523
  },
  {
    "name": "Петров Вал",
    "lat": 50.1380355,
    "long": 45.2091455
  },
  {
    "name": "Петровск",
    "lat": 52.3093782,
    "long": 45.3851649
  },
  {
    "name": "Петровск-Забайкальский",
    "lat": 51.2748381,
    "long": 108.8467139
  },
  {
    "name": "Петрозаводск",
    "lat": 61.78909,
    "long": 34.3596263
  },
  {
    "name": "Петропавловск-Камчатский",
    "lat": 53.0370213,
    "long": 158.6559142
  },
  {
    "name": "Петухово",
    "lat": 55.0649932,
    "long": 67.8874369
  },
  {
    "name": "Петушки",
    "lat": 55.9297657,
    "long": 39.4507913
  },
  {
    "name": "Печора",
    "lat": 65.1485717,
    "long": 57.22388
  },
  {
    "name": "Печоры",
    "lat": 57.8146689,
    "long": 27.6222823
  },
  {
    "name": "Пикалево",
    "lat": 59.5130655,
    "long": 34.1773982
  },
  {
    "name": "Пионерский",
    "lat": 54.9516927,
    "long": 20.227697
  },
  {
    "name": "Питкяранта",
    "lat": 61.5756886,
    "long": 31.4641309
  },
  {
    "name": "Плавск",
    "lat": 53.7095993,
    "long": 37.2863144
  },
  {
    "name": "Пласт",
    "lat": 54.3691832,
    "long": 60.8152305
  },
  {
    "name": "Плес",
    "lat": 57.4605304,
    "long": 41.512301
  },
  {
    "name": "Поворино",
    "lat": 51.1953446,
    "long": 42.2472432
  },
  {
    "name": "Подольск",
    "lat": 55.4389588,
    "long": 37.57027
  },
  {
    "name": "Подпорожье",
    "lat": 60.9127463,
    "long": 34.1567832
  },
  {
    "name": "Покачи",
    "lat": 61.7421977,
    "long": 75.5942069
  },
  {
    "name": "Покров",
    "lat": 55.9167118,
    "long": 39.1733641
  },
  {
    "name": "Покровск",
    "lat": 61.4843538,
    "long": 129.1482195
  },
  {
    "name": "Полевской",
    "lat": 56.4958085,
    "long": 60.2366314
  },
  {
    "name": "Полесск",
    "lat": 54.8626321,
    "long": 21.0998148
  },
  {
    "name": "Полысаево",
    "lat": 54.6053968,
    "long": 86.2808803
  },
  {
    "name": "Полярные Зори",
    "lat": 67.3730192,
    "long": 32.497541
  },
  {
    "name": "Полярный",
    "lat": 69.1988373,
    "long": 33.4509985
  },
  {
    "name": "Поронайск",
    "lat": 49.2387983,
    "long": 143.1007104
  },
  {
    "name": "Порхов",
    "lat": 57.7764223,
    "long": 29.5436424
  },
  {
    "name": "Похвистнево",
    "lat": 53.6498197,
    "long": 52.1235517
  },
  {
    "name": "Почеп",
    "lat": 52.9154724,
    "long": 33.4744608
  },
  {
    "name": "Починок",
    "lat": 54.4063031,
    "long": 32.4397914
  },
  {
    "name": "Пошехонье",
    "lat": 58.506328,
    "long": 39.1210034
  },
  {
    "name": "Правдинск",
    "lat": 54.4430604,
    "long": 21.0083638
  },
  {
    "name": "Приволжск",
    "lat": 57.3807249,
    "long": 41.2809239
  },
  {
    "name": "Приморск",
    "lat": 54.7311185,
    "long": 19.9983108
  },
  {
    "name": "Приморско-Ахтарск",
    "lat": 46.0515,
    "long": 38.1704654
  },
  {
    "name": "Приозерск",
    "lat": 61.03313,
    "long": 30.15876
  },
  {
    "name": "Прокопьевск",
    "lat": 53.8604562,
    "long": 86.7183428
  },
  {
    "name": "Пролетарск",
    "lat": 46.7038968,
    "long": 41.7274533
  },
  {
    "name": "Протвино",
    "lat": 54.8706614,
    "long": 37.2183307
  },
  {
    "name": "Прохладный",
    "lat": 43.7589521,
    "long": 44.0101936
  },
  {
    "name": "Псков",
    "lat": 57.819284,
    "long": 28.3318188
  },
  {
    "name": "Пугачев",
    "lat": 52.0158464,
    "long": 48.7972652
  },
  {
    "name": "Пудож",
    "lat": 61.8059147,
    "long": 36.5330088
  },
  {
    "name": "Пустошка",
    "lat": 56.3375131,
    "long": 29.3668243
  },
  {
    "name": "Пучеж",
    "lat": 56.982075,
    "long": 43.1683878
  },
  {
    "name": "Пушкино",
    "lat": 56.0104548,
    "long": 37.8471438
  },
  {
    "name": "Пущино",
    "lat": 54.832521,
    "long": 37.6210428
  },
  {
    "name": "Пыталово",
    "lat": 57.0637109,
    "long": 27.9234759
  },
  {
    "name": "Пыть-Ях",
    "lat": 60.7585769,
    "long": 72.8366445
  },
  {
    "name": "Пятигорск",
    "lat": 44.0411669,
    "long": 43.0661091
  },
  {
    "name": "Радужный",
    "lat": 55.9961034,
    "long": 40.3323247
  },
  {
    "name": "Райчихинск",
    "lat": 49.7941882,
    "long": 129.4112149
  },
  {
    "name": "Раменское",
    "lat": 55.549529,
    "long": 38.273015
  },
  {
    "name": "Рассказово",
    "lat": 52.6537517,
    "long": 41.8743779
  },
  {
    "name": "Ревда",
    "lat": 56.79869,
    "long": 59.9071464
  },
  {
    "name": "Реж",
    "lat": 57.3717914,
    "long": 61.3833223
  },
  {
    "name": "Реутов",
    "lat": 55.758236,
    "long": 37.8619443
  },
  {
    "name": "Ржев",
    "lat": 56.2629393,
    "long": 34.3291178
  },
  {
    "name": "Родники",
    "lat": 57.1024137,
    "long": 41.7298908
  },
  {
    "name": "Рославль",
    "lat": 53.9449601,
    "long": 32.8479617
  },
  {
    "name": "Россошь",
    "lat": 50.170089,
    "long": 39.6225534
  },
  {
    "name": "Ростов",
    "lat": 57.2050177,
    "long": 39.4378357
  },
  {
    "name": "Ростов-на-Дону",
    "lat": 47.2224364,
    "long": 39.7187866
  },
  {
    "name": "Рошаль",
    "lat": 55.6632504,
    "long": 39.8655434
  },
  {
    "name": "Ртищево",
    "lat": 52.2616298,
    "long": 43.7842399
  },
  {
    "name": "Рубцовск",
    "lat": 51.5013075,
    "long": 81.2077729
  },
  {
    "name": "Рудня",
    "lat": 54.9441357,
    "long": 31.0794758
  },
  {
    "name": "Руза",
    "lat": 55.7015302,
    "long": 36.1960043
  },
  {
    "name": "Рузаевка",
    "lat": 54.0583238,
    "long": 44.949116
  },
  {
    "name": "Рыбинск",
    "lat": 58.0483802,
    "long": 38.858338
  },
  {
    "name": "Рыбное",
    "lat": 54.7255937,
    "long": 39.513438
  },
  {
    "name": "Рыльск",
    "lat": 51.568165,
    "long": 34.6802178
  },
  {
    "name": "Ряжск",
    "lat": 53.7067718,
    "long": 40.0521358
  },
  {
    "name": "Рязань",
    "lat": 54.625457,
    "long": 39.7359992
  },
  {
    "name": "Саки",
    "lat": 45.1342889,
    "long": 33.6032508
  },
  {
    "name": "Салават",
    "lat": 53.3616311,
    "long": 55.9245559
  },
  {
    "name": "Салаир",
    "lat": 54.2351588,
    "long": 85.8029215
  },
  {
    "name": "Салехард",
    "lat": 66.5493568,
    "long": 66.6083994
  },
  {
    "name": "Сальск",
    "lat": 46.4751689,
    "long": 41.5412229
  },
  {
    "name": "Самара",
    "lat": 53.1951657,
    "long": 50.1067691
  },
  {
    "name": "Саранск",
    "lat": 54.1807601,
    "long": 45.1862263
  },
  {
    "name": "Сарапул",
    "lat": 56.4616117,
    "long": 53.8036967
  },
  {
    "name": "Саратов",
    "lat": 51.530376,
    "long": 45.9530257
  },
  {
    "name": "Саров",
    "lat": 54.9227002,
    "long": 43.3447792
  },
  {
    "name": "Сасово",
    "lat": 54.350807,
    "long": 41.9117458
  },
  {
    "name": "Сатка",
    "lat": 55.0404497,
    "long": 59.0288153
  },
  {
    "name": "Сафоново",
    "lat": 55.1199868,
    "long": 33.233799
  },
  {
    "name": "Саяногорск",
    "lat": 53.1008226,
    "long": 91.4121643
  },
  {
    "name": "Саянск",
    "lat": 54.1107787,
    "long": 102.1802563
  },
  {
    "name": "Светлогорск",
    "lat": 54.9439566,
    "long": 20.1514789
  },
  {
    "name": "Светлоград",
    "lat": 45.3284769,
    "long": 42.8566923
  },
  {
    "name": "Светлый",
    "lat": 54.6774051,
    "long": 20.1356625
  },
  {
    "name": "Светогорск",
    "lat": 61.1112679,
    "long": 28.8726666
  },
  {
    "name": "Свирск",
    "lat": 53.0842576,
    "long": 103.3364192
  },
  {
    "name": "Свободный",
    "lat": 51.361264,
    "long": 128.1218995
  },
  {
    "name": "Себеж",
    "lat": 56.2907663,
    "long": 28.4725735
  },
  {
    "name": "Северобайкальск",
    "lat": 55.6357165,
    "long": 109.3362606
  },
  {
    "name": "Северодвинск",
    "lat": 64.56253,
    "long": 39.8182715
  },
  {
    "name": "Северо-Курильск",
    "lat": 50.6731056,
    "long": 156.1280722
  },
  {
    "name": "Североморск",
    "lat": 69.0765029,
    "long": 33.4178354
  },
  {
    "name": "Североуральск",
    "lat": 60.1533333,
    "long": 59.9525274
  },
  {
    "name": "Северск",
    "lat": 56.6031143,
    "long": 84.8809687
  },
  {
    "name": "Севск",
    "lat": 52.1484215,
    "long": 34.4918198
  },
  {
    "name": "Сегежа",
    "lat": 63.7437211,
    "long": 34.3126755
  },
  {
    "name": "Сельцо",
    "lat": 53.3738801,
    "long": 34.1059226
  },
  {
    "name": "Семенов",
    "lat": 56.788935,
    "long": 44.4903571
  },
  {
    "name": "Семикаракорск",
    "lat": 47.5177981,
    "long": 40.811585
  },
  {
    "name": "Семилуки",
    "lat": 51.6951846,
    "long": 39.0189797
  },
  {
    "name": "Сенгилей",
    "lat": 53.9590553,
    "long": 48.7767869
  },
  {
    "name": "Серафимович",
    "lat": 49.566286,
    "long": 42.7360013
  },
  {
    "name": "Сергач",
    "lat": 55.5200364,
    "long": 45.4813193
  },
  {
    "name": "Сергиев Посад",
    "lat": 56.3063411,
    "long": 38.1502568
  },
  {
    "name": "Сердобск",
    "lat": 52.4697532,
    "long": 44.2122688
  },
  {
    "name": "Серов",
    "lat": 59.6048651,
    "long": 60.5752136
  },
  {
    "name": "Серпухов",
    "lat": 54.9225396,
    "long": 37.4032682
  },
  {
    "name": "Сертолово",
    "lat": 60.14458,
    "long": 30.2094595
  },
  {
    "name": "Сибай",
    "lat": 52.7205811,
    "long": 58.6663303
  },
  {
    "name": "Сим",
    "lat": 54.9906584,
    "long": 57.6899045
  },
  {
    "name": "Симферополь",
    "lat": 44.9482645,
    "long": 34.100117
  },
  {
    "name": "Сковородино",
    "lat": 53.9871004,
    "long": 123.943729
  },
  {
    "name": "Скопин",
    "lat": 53.8236028,
    "long": 39.5493286
  },
  {
    "name": "Славгород",
    "lat": 52.9993053,
    "long": 78.6459674
  },
  {
    "name": "Славск",
    "lat": 55.0451054,
    "long": 21.6742294
  },
  {
    "name": "Славянск-на-Кубани",
    "lat": 45.2605079,
    "long": 38.1260725
  },
  {
    "name": "Сланцы",
    "lat": 59.1178693,
    "long": 28.088106
  },
  {
    "name": "Слободской",
    "lat": 58.7311934,
    "long": 50.1670091
  },
  {
    "name": "Слюдянка",
    "lat": 51.6562679,
    "long": 103.7186877
  },
  {
    "name": "Смоленск",
    "lat": 54.7867168,
    "long": 31.8153366
  },
  {
    "name": "Снежинск",
    "lat": 56.085232,
    "long": 60.7324989
  },
  {
    "name": "Снежногорск",
    "lat": 69.1921469,
    "long": 33.2382821
  },
  {
    "name": "Собинка",
    "lat": 55.993798,
    "long": 40.0180034
  },
  {
    "name": "Советск",
    "lat": 55.0810474,
    "long": 21.8886272
  },
  {
    "name": "Советская Гавань",
    "lat": 48.9664554,
    "long": 140.2852223
  },
  {
    "name": "Советский",
    "lat": 61.3706695,
    "long": 63.566863
  },
  {
    "name": "Сокол",
    "lat": 59.4759156,
    "long": 40.1114414
  },
  {
    "name": "Солигалич",
    "lat": 59.0786729,
    "long": 42.2877245
  },
  {
    "name": "Соликамск",
    "lat": 59.6483518,
    "long": 56.7710358
  },
  {
    "name": "Солнечногорск",
    "lat": 56.2148655,
    "long": 37.0967653
  },
  {
    "name": "Сольвычегодск",
    "lat": 61.3318091,
    "long": 46.920351
  },
  {
    "name": "Соль-Илецк",
    "lat": 51.1634976,
    "long": 54.9895391
  },
  {
    "name": "Сольцы",
    "lat": 58.1201693,
    "long": 30.309285
  },
  {
    "name": "Сорочинск",
    "lat": 52.4265081,
    "long": 53.1542123
  },
  {
    "name": "Сорск",
    "lat": 54.0001451,
    "long": 90.2595674
  },
  {
    "name": "Сортавала",
    "lat": 61.7032216,
    "long": 30.6917021
  },
  {
    "name": "Сосенский",
    "lat": 54.056525,
    "long": 35.9621458
  },
  {
    "name": "Сосновка",
    "lat": 56.2533149,
    "long": 51.2833412
  },
  {
    "name": "Сосновоборск",
    "lat": 56.1202088,
    "long": 93.3353411
  },
  {
    "name": "Сосновый Бор",
    "lat": 59.8772921,
    "long": 29.1290866
  },
  {
    "name": "Сосногорск",
    "lat": 63.5990137,
    "long": 53.8762792
  },
  {
    "name": "Сочи",
    "lat": 43.5855829,
    "long": 39.7231419
  },
  {
    "name": "Спас-Деменск",
    "lat": 54.4099201,
    "long": 34.0190263
  },
  {
    "name": "Спас-Клепики",
    "lat": 55.1291472,
    "long": 40.1745036
  },
  {
    "name": "Спасск",
    "lat": 53.927163,
    "long": 43.1860475
  },
  {
    "name": "Спасск-Дальний",
    "lat": 44.5900929,
    "long": 132.8157564
  },
  {
    "name": "Спасск-Рязанский",
    "lat": 54.4071497,
    "long": 40.3764367
  },
  {
    "name": "Среднеколымск",
    "lat": 67.4581664,
    "long": 153.7069511
  },
  {
    "name": "Среднеуральск",
    "lat": 56.991883,
    "long": 60.4771953
  },
  {
    "name": "Сретенск",
    "lat": 52.2462356,
    "long": 117.7116971
  },
  {
    "name": "Ставрополь",
    "lat": 45.0445439,
    "long": 41.9690168
  },
  {
    "name": "Старая Купавна",
    "lat": 55.8038411,
    "long": 38.1426144
  },
  {
    "name": "Старая Русса",
    "lat": 57.9906873,
    "long": 31.3555076
  },
  {
    "name": "Старица",
    "lat": 56.514955,
    "long": 34.9335145
  },
  {
    "name": "Стародуб",
    "lat": 52.5851881,
    "long": 32.7603628
  },
  {
    "name": "Старый Крым",
    "lat": 45.0290659,
    "long": 35.0900885
  },
  {
    "name": "Старый Оскол",
    "lat": 51.2965991,
    "long": 37.8349849
  },
  {
    "name": "Стерлитамак",
    "lat": 53.6302498,
    "long": 55.9315707
  },
  {
    "name": "Стрежевой",
    "lat": 60.7328199,
    "long": 77.6040323
  },
  {
    "name": "Строитель",
    "lat": 50.7845571,
    "long": 36.4886619
  },
  {
    "name": "Струнино",
    "lat": 56.3750001,
    "long": 38.583938
  },
  {
    "name": "Ступино",
    "lat": 54.9238403,
    "long": 38.1186976
  },
  {
    "name": "Суворов",
    "lat": 54.1345367,
    "long": 36.4806933
  },
  {
    "name": "Судак",
    "lat": 44.8505913,
    "long": 34.9761591
  },
  {
    "name": "Суджа",
    "lat": 51.1919711,
    "long": 35.2719619
  },
  {
    "name": "Судогда",
    "lat": 55.949897,
    "long": 40.8563392
  },
  {
    "name": "Суздаль",
    "lat": 56.4273814,
    "long": 40.4525581
  },
  {
    "name": "Суоярви",
    "lat": 62.0787769,
    "long": 32.3499029
  },
  {
    "name": "Сураж",
    "lat": 53.0171239,
    "long": 32.3938351
  },
  {
    "name": "Сургут",
    "lat": 61.2539773,
    "long": 73.3961726
  },
  {
    "name": "Суровикино",
    "lat": 48.6189756,
    "long": 42.8541308
  },
  {
    "name": "Сурск",
    "lat": 53.0760597,
    "long": 45.6911897
  },
  {
    "name": "Сусуман",
    "lat": 62.7804628,
    "long": 148.154033
  },
  {
    "name": "Сухиничи",
    "lat": 54.0973787,
    "long": 35.3443077
  },
  {
    "name": "Сухой Лог",
    "lat": 56.9075938,
    "long": 62.0358708
  },
  {
    "name": "Сызрань",
    "lat": 53.1557213,
    "long": 48.4745419
  },
  {
    "name": "Сыктывкар",
    "lat": 61.668789,
    "long": 50.8356491
  },
  {
    "name": "Сысерть",
    "lat": 56.50052,
    "long": 60.8190708
  },
  {
    "name": "Сычевка",
    "lat": 55.8307397,
    "long": 34.277868
  },
  {
    "name": "Сясьстрой",
    "lat": 60.1402454,
    "long": 32.5602015
  },
  {
    "name": "Тавда",
    "lat": 58.0434196,
    "long": 65.2743232
  },
  {
    "name": "Таганрог",
    "lat": 47.2094907,
    "long": 38.935154
  },
  {
    "name": "Тайга",
    "lat": 56.0622767,
    "long": 85.6207907
  },
  {
    "name": "Тайшет",
    "lat": 55.9405397,
    "long": 98.0030649
  },
  {
    "name": "Талдом",
    "lat": 56.7308993,
    "long": 37.5276414
  },
  {
    "name": "Талица",
    "lat": 57.0123359,
    "long": 63.7322467
  },
  {
    "name": "Тамбов",
    "lat": 52.7213021,
    "long": 41.452258
  },
  {
    "name": "Тара",
    "lat": 56.9159171,
    "long": 74.3649643
  },
  {
    "name": "Тарко-Сале",
    "lat": 64.9117649,
    "long": 77.7610204
  },
  {
    "name": "Таруса",
    "lat": 54.7236791,
    "long": 37.1670866
  },
  {
    "name": "Татарск",
    "lat": 55.2145894,
    "long": 75.9740805
  },
  {
    "name": "Таштагол",
    "lat": 52.7594505,
    "long": 87.8477272
  },
  {
    "name": "Тверь",
    "lat": 56.8585396,
    "long": 35.9117898
  },
  {
    "name": "Теберда",
    "lat": 43.4438408,
    "long": 41.7414924
  },
  {
    "name": "Тейково",
    "lat": 56.8542712,
    "long": 40.5355289
  },
  {
    "name": "Темников",
    "lat": 54.6309086,
    "long": 43.2161785
  },
  {
    "name": "Темрюк",
    "lat": 45.2611082,
    "long": 37.445519
  },
  {
    "name": "Терек",
    "lat": 43.4838439,
    "long": 44.1402524
  },
  {
    "name": "Тетюши",
    "lat": 54.936575,
    "long": 48.8314915
  },
  {
    "name": "Тимашевск",
    "lat": 45.6159358,
    "long": 38.9350513
  },
  {
    "name": "Тихвин",
    "lat": 59.6273809,
    "long": 33.5072307
  },
  {
    "name": "Тихорецк",
    "lat": 45.8546953,
    "long": 40.1258702
  },
  {
    "name": "Тобольск",
    "lat": 58.2016828,
    "long": 68.2538392
  },
  {
    "name": "Тогучин",
    "lat": 55.2250038,
    "long": 84.4103867
  },
  {
    "name": "Тольятти",
    "lat": 53.5206438,
    "long": 49.389461
  },
  {
    "name": "Томари",
    "lat": 47.7619957,
    "long": 142.061508
  },
  {
    "name": "Томмот",
    "lat": 58.9586939,
    "long": 126.2875375
  },
  {
    "name": "Томск",
    "lat": 56.4847036,
    "long": 84.9481737
  },
  {
    "name": "Топки",
    "lat": 55.2766036,
    "long": 85.6153223
  },
  {
    "name": "Торжок",
    "lat": 57.0412804,
    "long": 34.9600691
  },
  {
    "name": "Торопец",
    "lat": 56.5011791,
    "long": 31.6354366
  },
  {
    "name": "Тосно",
    "lat": 59.5406697,
    "long": 30.8777872
  },
  {
    "name": "Тотьма",
    "lat": 59.9735051,
    "long": 42.7589701
  },
  {
    "name": "Трехгорный",
    "lat": 54.8178174,
    "long": 58.4465039
  },
  {
    "name": "Троицк",
    "lat": 54.0844132,
    "long": 61.5585503
  },
  {
    "name": "Трубчевск",
    "lat": 52.5791314,
    "long": 33.7660013
  },
  {
    "name": "Туапсе",
    "lat": 44.1103707,
    "long": 39.082645
  },
  {
    "name": "Туймазы",
    "lat": 54.5999889,
    "long": 53.6949081
  },
  {
    "name": "Тула",
    "lat": 54.192017,
    "long": 37.6153885
  },
  {
    "name": "Тулун",
    "lat": 54.5571409,
    "long": 100.5779402
  },
  {
    "name": "Туран",
    "lat": 52.144932,
    "long": 93.9172495
  },
  {
    "name": "Туринск",
    "lat": 58.0394258,
    "long": 63.698142
  },
  {
    "name": "Тутаев",
    "lat": 57.8674237,
    "long": 39.5368234
  },
  {
    "name": "Тында",
    "lat": 55.1546401,
    "long": 124.7468634
  },
  {
    "name": "Тырныауз",
    "lat": 43.3981939,
    "long": 42.9215127
  },
  {
    "name": "Тюкалинск",
    "lat": 55.8705121,
    "long": 72.1956156
  },
  {
    "name": "Тюмень",
    "lat": 57.1530824,
    "long": 65.5343118
  },
  {
    "name": "Уварово",
    "lat": 51.9768835,
    "long": 42.2529568
  },
  {
    "name": "Углегорск",
    "lat": 49.0816311,
    "long": 142.0693033
  },
  {
    "name": "Углич",
    "lat": 57.5223866,
    "long": 38.3019793
  },
  {
    "name": "Удачный",
    "lat": 66.4072367,
    "long": 112.3061653
  },
  {
    "name": "Удомля",
    "lat": 57.8787885,
    "long": 35.016716
  },
  {
    "name": "Ужур",
    "lat": 55.3141977,
    "long": 89.8333827
  },
  {
    "name": "Узловая",
    "lat": 53.9731407,
    "long": 38.1763104
  },
  {
    "name": "Улан-Удэ",
    "lat": 51.8334378,
    "long": 107.5841511
  },
  {
    "name": "Ульяновск",
    "lat": 54.3080674,
    "long": 48.3748717
  },
  {
    "name": "Унеча",
    "lat": 52.8460665,
    "long": 32.6757071
  },
  {
    "name": "Урай",
    "lat": 60.1295842,
    "long": 64.8040117
  },
  {
    "name": "Урень",
    "lat": 57.4612547,
    "long": 45.783394
  },
  {
    "name": "Уржум",
    "lat": 57.1097612,
    "long": 50.0056278
  },
  {
    "name": "Урюпинск",
    "lat": 50.7904767,
    "long": 42.0288589
  },
  {
    "name": "Усинск",
    "lat": 65.9941116,
    "long": 57.5570054
  },
  {
    "name": "Усмань",
    "lat": 52.0444165,
    "long": 39.7264516
  },
  {
    "name": "Усолье",
    "lat": 59.4279356,
    "long": 56.6837783
  },
  {
    "name": "Усолье-Сибирское",
    "lat": 52.7567192,
    "long": 103.6387694
  },
  {
    "name": "Уссурийск",
    "lat": 43.79726,
    "long": 131.9517262
  },
  {
    "name": "Усть-Джегута",
    "lat": 44.083852,
    "long": 41.971128
  },
  {
    "name": "Усть-Илимск",
    "lat": 57.9431325,
    "long": 102.7414683
  },
  {
    "name": "Усть-Катав",
    "lat": 54.9261323,
    "long": 58.1528067
  },
  {
    "name": "Усть-Кут",
    "lat": 56.7928049,
    "long": 105.7756883
  },
  {
    "name": "Усть-Лабинск",
    "lat": 45.222676,
    "long": 39.6930239
  },
  {
    "name": "Устюжна",
    "lat": 58.8383671,
    "long": 36.4425046
  },
  {
    "name": "Уфа",
    "lat": 54.734853,
    "long": 55.9578647
  },
  {
    "name": "Ухта",
    "lat": 63.5564779,
    "long": 53.7014202
  },
  {
    "name": "Учалы",
    "lat": 54.3066965,
    "long": 59.4126559
  },
  {
    "name": "Уяр",
    "lat": 55.8131698,
    "long": 94.3282148
  },
  {
    "name": "Фатеж",
    "lat": 52.0918591,
    "long": 35.8538912
  },
  {
    "name": "Феодосия",
    "lat": 45.031878,
    "long": 35.3824772
  },
  {
    "name": "Фокино",
    "lat": 53.4554552,
    "long": 34.4158537
  },
  {
    "name": "Фролово",
    "lat": 49.7647809,
    "long": 43.6648936
  },
  {
    "name": "Фрязино",
    "lat": 55.9590154,
    "long": 38.0409171
  },
  {
    "name": "Фурманов",
    "lat": 57.2538043,
    "long": 41.1053808
  },
  {
    "name": "Хабаровск",
    "lat": 48.4647991,
    "long": 135.0598811
  },
  {
    "name": "Хадыженск",
    "lat": 44.412303,
    "long": 39.5319151
  },
  {
    "name": "Ханты-Мансийск",
    "lat": 61.0024344,
    "long": 69.0183322
  },
  {
    "name": "Харабали",
    "lat": 47.4089187,
    "long": 47.2524467
  },
  {
    "name": "Харовск",
    "lat": 59.9477728,
    "long": 40.2000794
  },
  {
    "name": "Хасавюрт",
    "lat": 43.2505191,
    "long": 46.5852276
  },
  {
    "name": "Хвалынск",
    "lat": 52.4950057,
    "long": 48.1045147
  },
  {
    "name": "Хилок",
    "lat": 51.3635236,
    "long": 110.458989
  },
  {
    "name": "Химки",
    "lat": 55.8886705,
    "long": 37.4304154
  },
  {
    "name": "Холм",
    "lat": 57.1451036,
    "long": 31.1787812
  },
  {
    "name": "Холмск",
    "lat": 47.0408637,
    "long": 142.0416619
  },
  {
    "name": "Хотьково",
    "lat": 56.2515725,
    "long": 37.9395225
  },
  {
    "name": "Цивильск",
    "lat": 55.8650132,
    "long": 47.472967
  },
  {
    "name": "Цимлянск",
    "lat": 47.6477668,
    "long": 42.093022
  },
  {
    "name": "Циолковский",
    "lat": 51.7624346,
    "long": 128.121972
  },
  {
    "name": "Чадан",
    "lat": 51.2844482,
    "long": 91.5789135
  },
  {
    "name": "Чайковский",
    "lat": 56.7780203,
    "long": 54.1478482
  },
  {
    "name": "Чапаевск",
    "lat": 52.9289662,
    "long": 49.8674222
  },
  {
    "name": "Чаплыгин",
    "lat": 53.2404794,
    "long": 39.9671563
  },
  {
    "name": "Чебаркуль",
    "lat": 54.9819329,
    "long": 60.3773305
  },
  {
    "name": "Чебоксары",
    "lat": 56.1439378,
    "long": 47.2488718
  },
  {
    "name": "Чегем",
    "lat": 43.5672039,
    "long": 43.5865338
  },
  {
    "name": "Чекалин",
    "lat": 54.0985105,
    "long": 36.2474377
  },
  {
    "name": "Челябинск",
    "lat": 55.1603659,
    "long": 61.4007858
  },
  {
    "name": "Чердынь",
    "lat": 60.4011184,
    "long": 56.4801391
  },
  {
    "name": "Черемхово",
    "lat": 53.1369385,
    "long": 103.090119
  },
  {
    "name": "Черепаново",
    "lat": 54.2206974,
    "long": 83.3724392
  },
  {
    "name": "Череповец",
    "lat": 59.1269214,
    "long": 37.9092243
  },
  {
    "name": "Черкесск",
    "lat": 44.2268637,
    "long": 42.0467829
  },
  {
    "name": "Чермоз",
    "lat": 58.7842527,
    "long": 56.1507562
  },
  {
    "name": "Черноголовка",
    "lat": 56.0100909,
    "long": 38.3792328
  },
  {
    "name": "Черногорск",
    "lat": 53.8258425,
    "long": 91.3259669
  },
  {
    "name": "Чернушка",
    "lat": 56.5161079,
    "long": 56.0763919
  },
  {
    "name": "Черняховск",
    "lat": 54.6243928,
    "long": 21.7969179
  },
  {
    "name": "Чехов",
    "lat": 55.1507175,
    "long": 37.4532591
  },
  {
    "name": "Чистополь",
    "lat": 55.3699372,
    "long": 50.628495
  },
  {
    "name": "Чита",
    "lat": 52.0340128,
    "long": 113.4994884
  },
  {
    "name": "Чкаловск",
    "lat": 56.7651549,
    "long": 43.2420193
  },
  {
    "name": "Чудово",
    "lat": 59.1247477,
    "long": 31.6865406
  },
  {
    "name": "Чулым",
    "lat": 55.0906205,
    "long": 80.9592152
  },
  {
    "name": "Чусовой",
    "lat": 58.2974725,
    "long": 57.8193122
  },
  {
    "name": "Чухлома",
    "lat": 58.7534246,
    "long": 42.6883783
  },
  {
    "name": "Шагонар",
    "lat": 51.5347357,
    "long": 92.9199618
  },
  {
    "name": "Шадринск",
    "lat": 56.0870152,
    "long": 63.6298234
  },
  {
    "name": "Шали",
    "lat": 43.148776,
    "long": 45.9009577
  },
  {
    "name": "Шарыпово",
    "lat": 55.5389684,
    "long": 89.1801557
  },
  {
    "name": "Шарья",
    "lat": 58.3761832,
    "long": 45.4060762
  },
  {
    "name": "Шатура",
    "lat": 55.5777942,
    "long": 39.5443781
  },
  {
    "name": "Шахты",
    "lat": 47.7084247,
    "long": 40.2159154
  },
  {
    "name": "Шахунья",
    "lat": 57.6764773,
    "long": 46.6129673
  },
  {
    "name": "Шацк",
    "lat": 54.0288845,
    "long": 41.7182108
  },
  {
    "name": "Шебекино",
    "lat": 50.4005506,
    "long": 36.8877988
  },
  {
    "name": "Шелехов",
    "lat": 52.2102462,
    "long": 104.0973531
  },
  {
    "name": "Шенкурск",
    "lat": 62.1057423,
    "long": 42.89959
  },
  {
    "name": "Шилка",
    "lat": 51.8495302,
    "long": 116.033575
  },
  {
    "name": "Шимановск",
    "lat": 52.0052856,
    "long": 127.7006559
  },
  {
    "name": "Шиханы",
    "lat": 52.1148241,
    "long": 47.2022928
  },
  {
    "name": "Шлиссельбург",
    "lat": 59.9443923,
    "long": 31.0334136
  },
  {
    "name": "Шумерля",
    "lat": 55.4961795,
    "long": 46.4183534
  },
  {
    "name": "Шумиха",
    "lat": 55.2281833,
    "long": 63.2902391
  },
  {
    "name": "Шуя",
    "lat": 56.8560743,
    "long": 41.3802455
  },
  {
    "name": "Щекино",
    "lat": 54.0020749,
    "long": 37.517686
  },
  {
    "name": "Щелкино",
    "lat": 45.4289847,
    "long": 35.8251329
  },
  {
    "name": "Щелково",
    "lat": 55.9234303,
    "long": 37.9784419
  },
  {
    "name": "Щигры",
    "lat": 51.8787808,
    "long": 36.8910674
  },
  {
    "name": "Щучье",
    "lat": 55.20883,
    "long": 62.7478475
  },
  {
    "name": "Электрогорск",
    "lat": 55.8778573,
    "long": 38.7805239
  },
  {
    "name": "Электросталь",
    "lat": 55.7847718,
    "long": 38.4446531
  },
  {
    "name": "Электроугли",
    "lat": 55.7170329,
    "long": 38.2194049
  },
  {
    "name": "Элиста",
    "lat": 46.3082947,
    "long": 44.2701417
  },
  {
    "name": "Энгельс",
    "lat": 51.4854893,
    "long": 46.1267479
  },
  {
    "name": "Эртиль",
    "lat": 51.831024,
    "long": 40.8074054
  },
  {
    "name": "Югорск",
    "lat": 61.3124504,
    "long": 63.3364787
  },
  {
    "name": "Южа",
    "lat": 56.5926458,
    "long": 42.0457159
  },
  {
    "name": "Южно-Сахалинск",
    "lat": 46.959133,
    "long": 142.7381252
  },
  {
    "name": "Южно-Сухокумск",
    "lat": 44.6600972,
    "long": 45.6499304
  },
  {
    "name": "Южноуральск",
    "lat": 54.4490124,
    "long": 61.2581869
  },
  {
    "name": "Юрга",
    "lat": 55.7202689,
    "long": 84.8885516
  },
  {
    "name": "Юрьевец",
    "lat": 57.3178701,
    "long": 43.1110553
  },
  {
    "name": "Юрьев-Польский",
    "lat": 56.4938067,
    "long": 39.6679311
  },
  {
    "name": "Юрюзань",
    "lat": 54.8546372,
    "long": 58.4227116
  },
  {
    "name": "Юхнов",
    "lat": 54.7445873,
    "long": 35.2424857
  },
  {
    "name": "Ядрин",
    "lat": 55.9406826,
    "long": 46.2020765
  },
  {
    "name": "Якутск",
    "lat": 62.0280273,
    "long": 129.7325717
  },
  {
    "name": "Ялта",
    "lat": 44.416366,
    "long": 34.04455
  },
  {
    "name": "Ялуторовск",
    "lat": 56.649167,
    "long": 66.297034
  },
  {
    "name": "Янаул",
    "lat": 56.2650336,
    "long": 54.9298314
  },
  {
    "name": "Яранск",
    "lat": 57.304195,
    "long": 47.8479185
  },
  {
    "name": "Яровое",
    "lat": 52.9251728,
    "long": 78.5729898
  },
  {
    "name": "Ярославль",
    "lat": 57.6216145,
    "long": 39.897878
  },
  {
    "name": "Ярцево",
    "lat": 55.0564933,
    "long": 32.6902457
  },
  {
    "name": "Ясногорск",
    "lat": 54.4795178,
    "long": 37.689669
  },
  {
    "name": "Ясный",
    "lat": 51.0369499,
    "long": 59.8743256
  },
  {
    "name": "Яхрома",
    "lat": 56.2889858,
    "long": 37.4831016
  }
]
